$ADVER,3080,2.3
$GPRMC,080103.483,A,5222.2555,N,00454.5445,E,0.08,70.13,140109,,,A*5E
$GPGGA,080104.482,5222.2576,N,00454.5513,E,1,03,2.1,-47.0,M,47.0,M,,0000*44
$GPGSA,A,2,21,16,24,,,,,,,,,,2.3,2.1,1.0*32
$GPGSV,3,1,12,21,58,158,40,16,54,295,37,24,49,070,29,29,44,074,29*76
$GPGSV,3,2,12,31,31,210,,06,22,260,,10,17,044,,30,15,131,33*79
$GPGSV,3,3,12,13,09,325,,03,07,263,,23,05,300,,25,04,336,*74
$GPRMC,080104.482,A,5222.2576,N,00454.5513,E,0.00,70.13,140109,,,A*53
$GPVTG,70.13,T,,M,0.00,N,0.0,K,N*37
$GPGGA,080105.482,5222.2553,N,00454.5446,E,1,03,2.1,-47.0,M,47.0,M,,0000*43
$GPGSA,A,2,21,16,24,,,,,,,,,,2.3,2.1,1.0*32
$GPRMC,080105.482,A,5222.2553,N,00454.5446,E,0.33,38.80,140109,,,A*52
$GPVTG,38.80,T,,M,0.33,N,0.6,K,N*37
$GPGGA,080106.482,5222.2557,N,00454.5467,E,1,03,2.1,-47.0,M,47.0,M,,0000*47
$GPGSA,A,2,21,16,24,,,,,,,,,,2.3,2.1,1.0*32
$GPRMC,080106.482,A,5222.2557,N,00454.5467,E,0.08,34.89,140109,,,A*5B
$GPVTG,34.89,T,,M,0.08,N,0.2,K,N*3E
$GPGGA,080107.482,5222.2573,N,00454.5483,E,1,03,2.1,-47.0,M,47.0,M,,0000*4A
$GPGSA,A,2,21,16,24,,,,,,,,,,2.3,2.1,1.0*32
$GPRMC,080107.482,A,5222.2573,N,00454.5483,E,0.11,64.47,140109,,,A*59
$GPVTG,64.47,T,,M,0.11,N,0.2,K,N*31
$GPGGA,080108.482,5222.2561,N,00454.5435,E,1,03,2.1,-47.0,M,47.0,M,,0000*4B
$GPGSA,A,2,21,16,24,,,,,,,,,,2.3,2.1,1.0*32
$GPRMC,080108.482,A,5222.2561,N,00454.5435,E,0.08,63.67,140109,,,A*55
$GPVTG,63.67,T,,M,0.08,N,0.2,K,N*3C
$GPGGA,080109.482,5222.2550,N,00454.5474,E,1,03,2.1,-47.0,M,47.0,M,,0000*4D
$GPGSA,A,2,21,16,24,,,,,,,,,,2.4,2.1,1.0*35
$GPGSV,3,1,12,21,58,158,43,16,54,295,36,24,49,070,30,29,44,074,32*76
$GPGSV,3,2,12,31,31,210,,06,22,260,24,10,17,044,,30,15,131,33*7F
$GPGSV,3,3,12,13,09,325,,03,07,263,,23,05,300,,25,04,336,*74
$GPRMC,080109.482,A,5222.2550,N,00454.5474,E,0.06,81.58,140109,,,A*5D
$GPGGA,080110.482,5222.2517,N,00454.5422,E,1,03,2.1,-47.0,M,47.0,M,,0000*45
$GPGSA,A,2,21,16,24,,,,,,,,,,2.4,2.1,1.0*35
$GPRMC,080110.482,A,5222.2517,N,00454.5422,E,0.32,191.08,140109,,,A*67
$GPVTG,191.08,T,,M,0.32,N,0.6,K,N*04
$GPGGA,080111.482,5222.2498,N,00454.5452,E,1,03,2.1,-47.0,M,47.0,M,,0000*45
$GPGSA,A,2,21,16,24,,,,,,,,,,2.4,2.1,1.0*35
$GPRMC,080111.482,A,5222.2498,N,00454.5452,E,0.38,106.75,140109,,,A*69
$GPVTG,106.75,T,,M,0.38,N,0.7,K,N*0B
$GPGGA,080112.482,5222.2510,N,00454.5380,E,1,03,2.1,-47.0,M,47.0,M,,0000*4F
$GPGSA,A,2,21,16,24,,,,,,,,,,2.4,2.1,1.0*35
$GPRMC,080112.482,A,5222.2510,N,00454.5380,E,0.65,22.71,140109,,,A*58
$GPVTG,22.71,T,,M,0.65,N,1.2,K,N*34
$GPGGA,080113.482,5222.2531,N,00454.5491,E,1,03,2.1,-47.0,M,47.0,M,,0000*4A
$GPGSA,A,2,21,16,24,,,,,,,,,,2.4,2.1,1.0*35
$GPRMC,080113.482,A,5222.2531,N,00454.5491,E,0.55,0.22,140109,,,A*68
$GPVTG,0.22,T,,M,0.55,N,1.0,K,N*03
$GPGGA,080114.482,5222.2543,N,00454.5438,E,1,03,2.1,-47.0,M,47.0,M,,0000*4B
$GPGSA,A,2,21,16,24,,,,,,,,,,2.4,2.1,1.0*35
$GPGSV,3,1,12,21,58,158,34,16,54,295,28,24,49,070,26,29,44,074,26*7B
$GPGSV,3,2,12,31,31,210,,06,22,260,14,10,17,044,,30,15,131,25*7B
$GPGSV,3,3,12,13,09,325,,03,07,263,,23,05,300,,25,04,336,*74
$GPRMC,080114.482,A,5222.2543,N,00454.5438,E,0.35,227.50,140109,,,A*6D
$GPVTG,227.50,T,,M,0.35,N,0.6,K,N*00
$GPGGA,080115.482,5222.2535,N,00454.5437,E,1,03,2.1,-47.0,M,47.0,M,,0000*44
$GPGSA,A,2,21,16,24,,,,,,,,,,2.4,2.1,1.0*35
$GPRMC,080115.482,A,5222.2535,N,00454.5437,E,1.32,240.97,140109,,,A*6E
$GPVTG,240.97,T,,M,1.32,N,2.4,K,N*0C
$GPGGA,080116.482,5222.2550,N,00454.5526,E,1,03,2.1,-47.0,M,47.0,M,,0000*45
$GPGSA,A,2,21,16,24,,,,,,,,,,2.4,2.1,1.0*35
$GPRMC,080116.482,A,5222.2550,N,00454.5526,E,1.65,48.00,140109,,,A*59
$GPVTG,48.00,T,,M,1.65,N,3.1,K,N*3E
$GPGGA,080117.482,5222.2497,N,00454.5522,E,1,03,2.1,-47.0,M,47.0,M,,0000*4A
$GPGSA,A,2,21,16,24,,,,,,,,,,2.4,2.1,1.0*35
$GPRMC,080117.482,A,5222.2497,N,00454.5522,E,1.19,137.73,140109,,,A*60
$GPVTG,137.73,T,,M,1.19,N,2.2,K,N*0A
$GPGGA,080118.482,5222.2588,N,00454.5533,E,1,03,2.1,-47.0,M,47.0,M,,0000*4A
$GPGSA,A,2,21,16,24,,,,,,,,,,2.4,2.1,1.0*35
$GPRMC,080118.482,A,5222.2588,N,00454.5533,E,1.20,230.02,140109,,,A*68
$GPVTG,230.02,T,,M,1.20,N,2.2,K,N*02
$GPGGA,080119.482,5222.2553,N,00454.5491,E,1,03,2.1,-47.0,M,47.0,M,,0000*44
$GPGSA,A,2,21,16,24,,,,,,,,,,2.4,2.1,1.0*35
$GPGSV,3,1,12,21,58,158,28,16,54,295,30,24,49,070,22,29,44,074,23*7E
$GPGSV,3,2,12,31,31,210,,06,22,260,14,10,17,044,,30,15,131,24*7A
$GPGSV,3,3,12,13,09,325,,03,07,263,,23,05,300,,25,04,336,*74
$GPRMC,080119.482,A,5222.2553,N,00454.5491,E,0.71,84.81,140109,,,A*55
$GPVTG,84.81,T,,M,0.71,N,1.3,K,N*33
$GPGGA,080120.482,5222.2553,N,00454.5498,E,1,03,2.1,-47.0,M,47.0,M,,0000*47
$GPGSA,A,2,21,16,24,,,,,,,,,,2.4,2.1,1.0*35
$GPRMC,080120.482,A,5222.2553,N,00454.5498,E,0.16,38.26,140109,,,A*5D
$GPVTG,38.26,T,,M,0.16,N,0.3,K,N*39
$GPGGA,080121.482,5222.2597,N,00454.5556,E,1,03,2.1,-47.0,M,47.0,M,,0000*4D
$GPGSA,A,2,21,16,24,,,,,,,,,,2.4,2.1,1.0*35
$GPRMC,080121.482,A,5222.2597,N,00454.5556,E,1.45,210.91,140109,,,A*64
$GPVTG,210.91,T,,M,1.45,N,2.7,K,N*0C
$GPGGA,080122.482,5222.2531,N,00454.5463,E,1,03,2.1,-47.0,M,47.0,M,,0000*45
$GPGSA,A,2,21,16,24,,,,,,,,,,2.4,2.1,1.0*35
$GPRMC,080122.482,A,5222.2531,N,00454.5463,E,0.23,140.42,140109,,,A*65
$GPVTG,140.42,T,,M,0.23,N,0.4,K,N*04
$GPGGA,080123.482,5222.2525,N,00454.5467,E,1,03,2.1,-47.0,M,47.0,M,,0000*45
$GPGSA,A,2,21,16,24,,,,,,,,,,2.4,2.1,1.0*35
$GPRMC,080123.482,A,5222.2525,N,00454.5467,E,0.33,168.73,140109,,,A*6C
$GPVTG,168.73,T,,M,0.33,N,0.6,K,N*0F
$GPGGA,080124.482,5222.2475,N,00454.5385,E,1,03,2.1,-47.0,M,47.0,M,,0000*4D
$GPGSA,A,2,21,16,24,,,,,,,,,,2.4,2.1,1.0*35
$GPGSV,3,1,12,21,58,158,34,16,54,295,31,24,49,070,25,29,44,074,20*76
$GPGSV,3,2,12,31,31,210,,06,22,260,14,10,17,044,,30,15,131,27*79
$GPGSV,3,3,12,13,09,325,,03,07,263,,23,05,300,20,25,04,336,*76
$GPRMC,080124.482,A,5222.2475,N,00454.5385,E,0.41,243.16,140109,,,A*68
$GPVTG,243.16,T,,M,0.41,N,0.8,K,N*0D
$GPGGA,080125.482,5222.2495,N,00454.5425,E,1,03,2.1,-47.0,M,47.0,M,,0000*4F
$GPGSA,A,2,21,16,24,,,,,,,,,,2.4,2.1,1.0*35
$GPRMC,080125.482,A,5222.2495,N,00454.5425,E,0.38,167.17,140109,,,A*60
$GPVTG,167.17,T,,M,0.38,N,0.7,K,N*08
$GPGGA,080126.482,5222.2488,N,00454.5377,E,1,03,2.1,-47.0,M,47.0,M,,0000*40
$GPGSA,A,2,21,16,24,,,,,,,,,,2.4,2.1,1.0*35
$GPRMC,080126.482,A,5222.2488,N,00454.5377,E,0.35,311.34,140109,,,A*60
$GPVTG,311.34,T,,M,0.35,N,0.6,K,N*06
$GPGGA,080127.482,5222.2486,N,00454.5408,E,1,03,2.1,-47.0,M,47.0,M,,0000*40
$GPGSA,A,2,21,16,24,,,,,,,,,,2.4,2.1,1.0*35
$GPRMC,080127.482,A,5222.2486,N,00454.5408,E,0.23,286.62,140109,,,A*6B
$GPVTG,286.62,T,,M,0.23,N,0.4,K,N*0F
$GPGGA,080128.482,5222.2482,N,00454.5438,E,1,03,2.1,-47.0,M,47.0,M,,0000*48
$GPGSA,A,2,21,16,24,,,,,,,,,,2.4,2.1,1.0*35
$GPRMC,080128.482,A,5222.2482,N,00454.5438,E,0.18,23.48,140109,,,A*5E
$GPVTG,23.48,T,,M,0.18,N,0.3,K,N*35
$GPGGA,080129.482,5222.2483,N,00454.5436,E,1,03,2.1,-47.0,M,47.0,M,,0000*46
$GPGSA,A,2,21,16,24,,,,,,,,,,2.4,2.1,1.0*35
$GPGSV,3,1,12,21,58,158,37,16,54,295,31,24,49,070,26,29,44,074,30*77
$GPGSV,3,2,12,31,31,210,,06,22,260,14,10,17,044,,30,15,131,35*7A
$GPGSV,3,3,12,13,09,325,22,03,07,263,,23,05,300,22,25,04,336,*74
$GPRMC,080129.482,A,5222.2483,N,00454.5436,E,0.34,40.90,140109,,,A*5E
$GPVTG,40.90,T,,M,0.34,N,0.6,K,N*3E
$GPGGA,080130.482,5222.2491,N,00454.5444,E,1,03,2.1,-47.0,M,47.0,M,,0000*48
$GPGSA,A,2,21,16,24,,,,,,,,,,2.4,2.1,1.0*35
$GPRMC,080130.482,A,5222.2491,N,00454.5444,E,0.12,112.72,140109,,,A*6E
$GPVTG,112.72,T,,M,0.12,N,0.2,K,N*04
$GPGGA,080131.482,5222.2496,N,00454.5454,E,1,03,2.1,-47.0,M,47.0,M,,0000*4F
$GPGSA,A,2,21,16,24,,,,,,,,,,2.4,2.1,1.0*35
$GPRMC,080131.482,A,5222.2496,N,00454.5454,E,0.20,16.23,140109,,,A*59
$GPVTG,16.23,T,,M,0.20,N,0.4,K,N*32
$GPGGA,080132.482,5222.2500,N,00454.5460,E,1,03,2.1,-47.0,M,47.0,M,,0000*45
$GPGSA,A,2,21,16,24,,,,,,,,,,2.4,2.1,1.0*35
$GPRMC,080132.482,A,5222.2500,N,00454.5460,E,0.26,108.06,140109,,,A*6C
$GPVTG,108.06,T,,M,0.26,N,0.5,K,N*0C
$GPGGA,080133.482,5222.2487,N,00454.5487,E,1,03,2.1,-47.0,M,47.0,M,,0000*43
$GPGSA,A,2,21,16,24,,,,,,,,,,2.4,2.1,1.0*35
$GPRMC,080133.482,A,5222.2487,N,00454.5487,E,0.05,22.25,140109,,,A*53
$GPVTG,22.25,T,,M,0.05,N,0.1,K,N*31
$GPGGA,080134.482,5222.2497,N,00454.5445,E,1,03,2.1,-47.0,M,47.0,M,,0000*4B
$GPGSA,A,2,21,16,24,,,,,,,,,,2.4,2.1,1.0*35
$GPGSV,3,1,12,21,58,158,36,16,54,295,23,24,49,070,27,29,44,074,28*7D
$GPGSV,3,2,12,31,31,210,,06,22,260,16,10,17,044,,30,15,131,36*7B
$GPGSV,3,3,12,13,09,325,20,03,07,263,,23,05,300,22,25,04,336,*76
$GPVTG,72.88,T,,M,0.16,N,0.3,K,N*33
$GPGGA,080135.482,5222.2507,N,00454.5459,E,1,03,2.1,-47.0,M,47.0,M,,0000*4F
$GPGSA,A,2,21,16,24,,,,,,,,,,2.4,2.1,1.0*35
$GPRMC,080135.482,A,5222.2507,N,00454.5459,E,0.14,97.20,140109,,,A*54
$GPVTG,97.20,T,,M,0.14,N,0.3,K,N*38
$GPGGA,080136.482,5222.2484,N,00454.5497,E,1,03,2.1,-47.0,M,47.0,M,,0000*44
$GPGSA,A,2,21,16,24,,,,,,,,,,2.4,2.1,1.0*35
$GPRMC,080136.482,A,5222.2484,N,00454.5497,E,0.57,106.95,140109,,,A*6F
$GPVTG,106.95,T,,M,0.57,N,1.0,K,N*0A
$GPGGA,080137.482,5222.2491,N,00454.5508,E,1,03,2.1,-47.0,M,47.0,M,,0000*46
$GPGSA,A,2,21,16,24,,,,,,,,,,2.4,2.1,1.0*35
$GPRMC,080137.482,A,5222.2491,N,00454.5508,E,1.12,108.81,140109,,,A*66
$GPVTG,108.81,T,,M,1.12,N,2.1,K,N*03
$GPGGA,080138.482,5222.2511,N,00454.5455,E,1,03,2.1,-47.0,M,47.0,M,,0000*49
$GPGSA,A,2,21,16,24,,,,,,,,,,2.4,2.1,1.0*35
$GPRMC,080138.482,A,5222.2511,N,00454.5455,E,0.90,0.88,140109,,,A*62
$GPVTG,0.88,T,,M,0.90,N,1.7,K,N*0D
$GPGGA,080139.482,5222.2483,N,00454.5522,E,1,03,2.1,-47.0,M,47.0,M,,0000*43
$GPGSA,A,2,21,16,24,,,,,,,,,,2.4,2.1,1.0*35
$GPGSV,3,1,12,21,58,158,33,16,54,295,27,24,49,070,30,29,44,074,25*77
$GPGSV,3,2,12,31,31,210,,06,22,260,15,10,17,044,,30,15,131,34*7A
$GPGSV,3,3,12,13,09,325,18,03,07,263,13,23,05,300,,25,04,336,*7F
$GPRMC,080139.482,A,5222.2483,N,00454.5522,E,0.28,115.55,140109,,,A*6E
$GPVTG,115.55,T,,M,0.28,N,0.5,K,N*08
$GPGGA,080140.482,5222.2489,N,00454.5504,E,1,03,2.1,-47.0,M,47.0,M,,0000*43
$GPGSA,A,2,21,16,24,,,,,,,,,,2.4,2.1,1.0*35
$GPRMC,080140.482,A,5222.2489,N,00454.5504,E,0.02,119.17,140109,,,A*6C
$GPVTG,119.17,T,,M,0.02,N,0.0,K,N*0F
$GPGGA,080141.482,5222.2503,N,00454.5461,E,1,03,2.1,-47.0,M,47.0,M,,0000*43
$GPGSA,A,2,21,16,24,,,,,,,,,,2.4,2.1,1.0*35
$GPRMC,080141.482,A,5222.2503,N,00454.5461,E,1.40,113.29,140109,,,A*6C
$GPVTG,113.29,T,,M,1.40,N,2.6,K,N*0B
$GPGGA,080142.482,5222.2527,N,00454.5395,E,1,03,2.1,-47.0,M,47.0,M,,0000*4A
$GPGSA,A,2,21,16,24,,,,,,,,,,2.4,2.1,1.0*35
$GPRMC,080142.482,A,5222.2527,N,00454.5395,E,0.12,59.90,140109,,,A*5E
$GPVTG,59.90,T,,M,0.12,N,0.2,K,N*36
$GPGGA,080143.482,5222.2516,N,00454.5429,E,1,03,2.1,-47.0,M,47.0,M,,0000*49
$GPGSA,A,2,21,16,24,,,,,,,,,,2.4,2.1,1.0*35
$GPRMC,080143.482,A,5222.2516,N,00454.5429,E,0.28,288.93,140109,,,A*69
$GPVTG,288.93,T,,M,0.28,N,0.5,K,N*05
$GPGGA,080144.482,5222.2510,N,00454.5457,E,1,03,2.1,-47.0,M,47.0,M,,0000*41
$GPGSA,A,2,21,16,24,,,,,,,,,,2.4,2.1,1.0*35
$GPGSV,3,1,12,21,58,158,34,16,54,295,29,24,49,070,25,29,44,074,23*7C
$GPGSV,3,2,12,31,31,210,,06,22,260,15,10,17,044,,30,15,131,36*78
$GPGSV,3,3,12,13,09,325,23,03,07,263,13,23,05,300,21,25,04,336,*74
$GPRMC,080144.482,A,5222.2510,N,00454.5457,E,0.11,34.69,140109,,,A*5B
$GPVTG,34.69,T,,M,0.11,N,0.2,K,N*38
$GPGGA,080145.482,5222.2594,N,00454.5608,E,1,03,2.1,-47.0,M,47.0,M,,0000*44
$GPGSA,A,2,21,16,24,,,,,,,,,,2.4,2.1,1.0*35
$GPRMC,080145.482,A,5222.2594,N,00454.5608,E,0.09,128.60,140109,,,A*62
$GPVTG,128.60,T,,M,0.09,N,0.2,K,N*04
$GPGGA,080146.482,5222.2570,N,00454.5586,E,1,03,2.1,-47.0,M,47.0,M,,0000*48
$GPGSA,A,2,21,16,24,,,,,,,,,,2.4,2.1,1.0*35
$GPRMC,080146.482,A,5222.2570,N,00454.5586,E,1.04,224.86,140109,,,A*65
$GPVTG,224.86,T,,M,1.04,N,1.9,K,N*05
$GPGGA,080147.482,5222.2535,N,00454.5531,E,1,03,2.1,-47.0,M,47.0,M,,0000*44
$GPGSA,A,2,21,16,24,,,,,,,,,,2.4,2.1,1.0*35
$GPRMC,080147.482,A,5222.2535,N,00454.5531,E,0.17,183.28,140109,,,A*60
$GPVTG,183.28,T,,M,0.17,N,0.3,K,N*07
$GPGGA,080148.482,5222.2516,N,00454.5532,E,1,03,2.1,-47.0,M,47.0,M,,0000*49
$GPGSA,A,2,21,16,24,,,,,,,,,,2.4,2.1,1.0*35
$GPRMC,080148.482,A,5222.2516,N,00454.5532,E,1.96,177.28,140109,,,A*6E
$GPVTG,177.28,T,,M,1.96,N,3.6,K,N*02
$GPGGA,080151.486,5222.2589,N,00454.5591,E,1,03,2.1,-47.0,M,47.0,M,,0000*4A
$GPGSA,A,2,21,16,24,,,,,,,,,,2.4,2.1,1.0*35
$GPRMC,080151.486,A,5222.2589,N,00454.5591,E,2.78,182.99,140109,,,A*6E
$GPVTG,182.99,T,,M,2.78,N,5.2,K,N*03
$GPGGA,080152.486,5222.2521,N,00454.5517,E,1,03,2.1,-47.0,M,47.0,M,,0000*45
$GPGSA,A,2,21,16,24,,,,,,,,,,2.4,2.1,1.0*35
$GPRMC,080152.486,A,5222.2521,N,00454.5517,E,0.08,292.53,140109,,,A*60
$GPVTG,292.53,T,,M,0.08,N,0.1,K,N*04
$GPGGA,080153.486,5222.2526,N,00454.5493,E,1,03,2.1,-47.0,M,47.0,M,,0000*4E
$GPGSA,A,2,21,16,24,,,,,,,,,,2.4,2.1,1.0*35
$GPRMC,080153.486,A,5222.2526,N,00454.5493,E,0.29,92.75,140109,,,A*5E
$GPVTG,92.75,T,,M,0.29,N,0.5,K,N*35
$GPGGA,080154.482,5222.2544,N,00454.5499,E,1,03,2.1,-47.0,M,47.0,M,,0000*43
$GPGSA,A,2,21,16,24,,,,,,,,,,2.4,2.1,1.0*35
$GPGSV,3,1,12,21,58,157,32,16,54,295,35,24,49,069,31,29,44,074,32*75
$GPGSV,3,2,12,31,31,210,16,06,22,260,16,10,17,044,,30,15,131,30*7A
$GPGSV,3,3,12,13,09,324,22,03,08,263,13,23,05,299,21,25,04,335,*79
$GPRMC,080154.482,A,5222.2544,N,00454.5499,E,0.12,34.70,140109,,,A*52
$GPVTG,34.70,T,,M,0.12,N,0.2,K,N*33
$GPGGA,080155.482,5222.2555,N,00454.5501,E,1,03,2.1,-47.0,M,47.0,M,,0000*42
$GPGSA,A,2,21,16,24,,,,,,,,,,2.4,2.1,1.0*35
$GPRMC,080155.482,A,5222.2555,N,00454.5501,E,0.50,24.10,140109,,,A*52
$GPVTG,24.10,T,,M,0.50,N,0.9,K,N*39
$GPGGA,080156.482,5222.2553,N,00454.5502,E,1,03,2.1,-47.0,M,47.0,M,,0000*44
$GPGSA,A,2,21,16,24,,,,,,,,,,2.4,2.1,1.0*35
$GPRMC,080156.482,A,5222.2553,N,00454.5502,E,0.67,56.00,140109,,,A*54
$GPVTG,56.00,T,,M,0.67,N,1.2,K,N*33
$GPGGA,080157.482,5222.2550,N,00454.5502,E,1,03,2.1,-47.0,M,47.0,M,,0000*46
$GPGSA,A,2,21,16,24,,,,,,,,,,2.4,2.1,1.0*35
$GPRMC,080157.482,A,5222.2550,N,00454.5502,E,0.33,47.22,140109,,,A*57
$GPVTG,47.22,T,,M,0.33,N,0.6,K,N*37
$GPGGA,080158.482,5222.2549,N,00454.5499,E,1,03,2.1,-47.0,M,47.0,M,,0000*42
$GPGSA,A,2,21,16,24,,,,,,,,,,2.4,2.1,1.0*35
$GPRMC,080158.482,A,5222.2549,N,00454.5499,E,0.62,295.69,140109,,,A*65
$GPVTG,295.69,T,,M,0.62,N,1.2,K,N*04
$GPGGA,080159.482,5222.2563,N,00454.5523,E,1,03,2.1,-47.0,M,47.0,M,,0000*4B
$GPGSA,A,2,21,16,24,,,,,,,,,,2.4,2.1,1.0*35
$GPGSV,3,1,12,21,58,157,31,16,54,295,36,24,49,069,25,29,44,074,21*72
$GPGSV,3,2,12,31,31,210,20,06,22,260,16,10,17,044,,30,15,131,35*7A
$GPGSV,3,3,12,13,09,324,23,03,08,263,,23,05,299,12,25,04,335,*7A
$GPRMC,080159.482,A,5222.2563,N,00454.5523,E,0.12,231.69,140109,,,A*65
$GPGGA,080200.482,5222.2578,N,00454.5556,E,1,03,2.1,-47.0,M,47.0,M,,0000*4C
$GPGSA,A,2,21,16,24,,,,,,,,,,2.4,2.1,1.0*35
$GPRMC,080200.482,A,5222.2578,N,00454.5556,E,0.99,65.33,140109,,,A*5D
$GPVTG,65.33,T,,M,0.99,N,1.8,K,N*38
$GPGGA,080201.482,5222.2587,N,00454.5453,E,1,03,2.1,-47.0,M,47.0,M,,0000*49
$GPGSA,A,2,21,16,24,,,,,,,,,,2.4,2.1,1.0*35
$GPRMC,080201.482,A,5222.2587,N,00454.5453,E,1.10,303.37,140109,,,A*6F
$GPVTG,303.37,T,,M,1.10,N,2.0,K,N*04
$GPGGA,080202.482,5222.2556,N,00454.5513,E,1,03,2.1,-47.0,M,47.0,M,,0000*43
$GPGSA,A,2,21,16,24,,,,,,,,,,2.4,2.1,1.0*35
$GPRMC,080202.482,A,5222.2556,N,00454.5513,E,0.16,264.75,140109,,,A*64
$GPVTG,264.75,T,,M,0.16,N,0.3,K,N*04
$GPGGA,080203.482,5222.2552,N,00454.5520,E,1,03,2.1,-47.0,M,47.0,M,,0000*46
$GPGSA,A,2,21,16,24,,,,,,,,,,2.4,2.1,1.0*35
$GPRMC,080203.482,A,5222.2552,N,00454.5520,E,0.08,206.21,140109,,,A*6B
$GPVTG,206.21,T,,M,0.08,N,0.2,K,N*0F
$GPGGA,080204.482,5222.2543,N,00454.5519,E,1,03,2.1,-47.0,M,47.0,M,,0000*4B
$GPGSA,A,2,21,16,24,,,,,,,,,,2.4,2.1,1.0*35
$GPGSV,3,1,12,21,58,157,32,16,54,295,34,24,49,069,27,29,44,074,22*72
$GPGSV,3,2,12,31,31,210,21,06,22,260,20,10,17,044,,30,15,131,35*7E
$GPGSV,3,3,12,13,09,324,25,03,08,263,,23,05,299,13,25,04,335,*7D
$GPRMC,080204.482,A,5222.2543,N,00454.5519,E,0.10,59.48,140109,,,A*58
$GPVTG,59.48,T,,M,0.10,N,0.2,K,N*31
$GPGGA,080205.482,5222.2549,N,00454.5489,E,1,03,2.1,-47.0,M,47.0,M,,0000*48
$GPGSA,A,2,21,16,24,,,,,,,,,,2.4,2.1,1.0*35
$GPRMC,080205.482,A,5222.2549,N,00454.5489,E,0.81,162.34,140109,,,A*61
$GPVTG,162.34,T,,M,0.81,N,1.5,K,N*0D
$GPGGA,080206.482,5222.2554,N,00454.5468,E,1,03,2.1,-47.0,M,47.0,M,,0000*48
$GPGSA,A,2,21,16,24,,,,,,,,,,2.4,2.1,1.0*35
$GPRMC,080206.482,A,5222.2554,N,00454.5468,E,0.26,57.30,140109,,,A*5F
$GPVTG,57.30,T,,M,0.26,N,0.5,K,N*32
$GPGGA,080207.482,5222.2556,N,00454.5467,E,1,03,2.1,-47.0,M,47.0,M,,0000*44
$GPGSA,A,2,21,16,24,,,,,,,,,,2.4,2.1,1.0*35
$GPRMC,080207.482,A,5222.2556,N,00454.5467,E,0.17,92.94,140109,,,A*56
$GPVTG,92.94,T,,M,0.17,N,0.3,K,N*31
$GPGGA,080208.482,5222.2553,N,00454.5482,E,1,03,2.1,-47.0,M,47.0,M,,0000*45
$GPGSA,A,2,21,16,24,,,,,,,,,,2.4,2.1,1.0*35
$GPRMC,080208.482,A,5222.2553,N,00454.5482,E,0.12,100.42,140109,,,A*63
$GPVTG,100.42,T,,M,0.12,N,0.2,K,N*04
$GPGGA,080209.482,5222.2554,N,00454.5484,E,1,03,2.1,-47.0,M,47.0,M,,0000*45
$GPGSA,A,2,21,16,24,,,,,,,,,,2.4,2.1,1.0*35
$GPGSV,3,1,12,21,58,157,34,16,54,295,33,24,49,069,28,29,44,074,28*76
$GPGSV,3,2,12,31,31,210,20,06,22,260,18,10,17,044,,30,15,131,35*74
$GPGSV,3,3,12,13,09,324,21,03,08,263,,23,05,299,15,25,04,335,*7F
$GPRMC,080209.482,A,5222.2554,N,00454.5484,E,0.19,18.31,140109,,,A*54
$GPVTG,18.31,T,,M,0.19,N,0.4,K,N*35
$GPGGA,080210.482,5222.2552,N,00454.5489,E,1,03,2.1,-47.0,M,47.0,M,,0000*46
$GPGSA,A,2,21,16,24,,,,,,,,,,2.4,2.1,1.0*35
$GPRMC,080210.482,A,5222.2552,N,00454.5489,E,0.16,175.14,140109,,,A*65
$GPVTG,175.14,T,,M,0.16,N,0.3,K,N*00
$GPGGA,080211.482,5222.2552,N,00454.5498,E,1,03,2.1,-47.0,M,47.0,M,,0000*47
$GPGSA,A,2,21,16,24,,,,,,,,,,2.4,2.1,1.0*35
$GPRMC,080211.482,A,5222.2552,N,00454.5498,E,0.26,3.94,140109,,,A*6F
$GPVTG,3.94,T,,M,0.26,N,0.5,K,N*0D
$GPGGA,080212.482,5222.2552,N,00454.5498,E,1,03,2.1,-47.0,M,47.0,M,,0000*44
$GPGSA,A,2,21,16,24,,,,,,,,,,2.4,2.1,1.0*35
$GPRMC,080212.482,A,5222.2552,N,00454.5498,E,0.29,337.76,140109,,,A*6B
$GPVTG,337.76,T,,M,0.29,N,0.5,K,N*0A
$GPGGA,080213.482,5222.2553,N,00454.5498,E,1,03,2.1,-47.0,M,47.0,M,,0000*44
$GPGSA,A,2,21,16,24,,,,,,,,,,2.4,2.1,1.0*35
$GPRMC,080213.482,A,5222.2553,N,00454.5498,E,0.54,19.59,140109,,,A*53
$GPVTG,19.59,T,,M,0.54,N,1.0,K,N*36
$GPGGA,080214.482,5222.2552,N,00454.5498,E,1,03,2.1,-47.0,M,47.0,M,,0000*42
$GPGSA,A,2,21,16,24,,,,,,,,,,2.4,2.1,1.0*35
$GPGSV,3,1,12,21,58,157,27,16,54,295,34,24,49,069,30,29,43,074,22*77
$GPGSV,3,2,12,31,31,210,18,06,22,260,22,10,17,044,,30,15,131,35*76
$GPGSV,3,3,12,13,09,324,25,03,08,263,,23,05,299,20,25,04,335,*7D
$GPRMC,080214.482,A,5222.2552,N,00454.5498,E,0.20,152.69,140109,,,A*6B
$GPVTG,152.69,T,,M,0.20,N,0.4,K,N*0D
$GPGGA,080215.482,5222.2583,N,00454.5589,E,1,03,2.1,-47.0,M,47.0,M,,0000*4E
$GPGSA,A,2,21,16,24,,,,,,,,,,2.4,2.1,1.0*35
$GPRMC,080215.482,A,5222.2583,N,00454.5589,E,0.77,38.50,140109,,,A*52
$GPVTG,38.50,T,,M,0.77,N,1.4,K,N*39
$GPGGA,080216.482,5222.2535,N,00454.5497,E,1,03,2.1,-47.0,M,47.0,M,,0000*4E
$GPGSA,A,2,21,16,24,,,,,,,,,,2.4,2.1,1.0*35
$GPRMC,080216.482,A,5222.2535,N,00454.5497,E,0.48,48.55,140109,,,A*5C
$GPVTG,48.55,T,,M,0.48,N,0.9,K,N*3B
$GPGGA,080217.482,5222.2525,N,00454.5474,E,1,03,2.1,-47.0,M,47.0,M,,0000*43
$GPGSA,A,2,21,16,24,,,,,,,,,,2.4,2.1,1.0*35
$GPRMC,080217.482,A,5222.2525,N,00454.5474,E,0.69,110.57,140109,,,A*6C
$GPVTG,110.57,T,,M,0.69,N,1.3,K,N*0D
$GPGGA,080218.482,5222.2542,N,00454.5497,E,1,03,2.1,-47.0,M,47.0,M,,0000*40
$GPGSA,A,2,21,16,24,,,,,,,,,,2.4,2.1,1.0*35
$GPRMC,080218.482,A,5222.2542,N,00454.5497,E,0.25,347.33,140109,,,A*65
$GPVTG,347.33,T,,M,0.25,N,0.5,K,N*00
$GPGGA,080219.486,5222.2546,N,00454.5503,E,1,03,2.1,-47.0,M,47.0,M,,0000*4D
$GPGSA,A,2,21,16,24,,,,,,,,,,2.4,2.1,1.0*35
$GPGSV,3,1,12,21,58,157,35,16,54,295,34,24,49,069,30,29,43,074,22*74
$GPGSV,3,2,12,31,31,210,28,06,22,260,22,10,17,044,,30,15,131,39*79
$GPGSV,3,3,12,13,09,324,26,03,08,263,,23,05,299,17,25,04,335,*7A
$GPRMC,080219.486,A,5222.2546,N,00454.5503,E,0.32,333.45,140109,,,A*6C
$GPVTG,333.45,T,,M,0.32,N,0.6,K,N*07
$GPGGA,080220.482,5222.2537,N,00454.5495,E,1,03,2.1,-47.0,M,47.0,M,,0000*4B
$GPGSA,A,2,21,16,24,,,,,,,,,,2.4,2.1,1.0*35
$GPRMC,080220.482,A,5222.2537,N,00454.5495,E,0.32,28.81,140109,,,A*5B
$GPVTG,28.81,T,,M,0.32,N,0.6,K,N*36
$GPGGA,080221.482,5222.2545,N,00454.5508,E,1,03,2.1,-47.0,M,47.0,M,,0000*4A
$GPGSA,A,2,21,16,24,,,,,,,,,,2.4,2.1,1.0*35
$GPRMC,080221.482,A,5222.2545,N,00454.5508,E,0.51,205.58,140109,,,A*66
$GPVTG,205.58,T,,M,0.51,N,1.0,K,N*0D
$GPGGA,080222.482,5222.2534,N,00454.5490,E,1,03,2.1,-47.0,M,47.0,M,,0000*4F
$GPGSA,A,2,21,16,24,,,,,,,,,,2.4,2.1,1.0*35
$GPRMC,080222.482,A,5222.2534,N,00454.5490,E,0.24,143.84,140109,,,A*61
$GPVTG,143.84,T,,M,0.24,N,0.4,K,N*0A
$GPGGA,080223.482,5222.2535,N,00454.5496,E,1,03,2.1,-47.0,M,47.0,M,,0000*49
$GPGSA,A,2,21,16,24,,,,,,,,,,2.4,2.1,1.0*35
$GPRMC,080223.482,A,5222.2535,N,00454.5496,E,0.39,158.96,140109,,,A*62
$GPVTG,158.96,T,,M,0.39,N,0.7,K,N*0C
$GPGGA,080224.482,5222.2526,N,00454.5486,E,1,03,2.1,-47.0,M,47.0,M,,0000*4D
$GPGSA,A,2,21,16,24,,,,,,,,,,2.4,2.1,1.0*35
$GPGSV,3,1,12,21,58,157,33,16,54,295,34,24,49,069,31,29,43,074,21*70
$GPGSV,3,2,12,31,31,210,28,06,22,260,21,10,17,044,,30,15,131,38*7B
$GPRMC,080224.482,A,5222.2526,N,00454.5486,E,0.29,185.69,140109,,,A*67
$GPVTG,185.69,T,,M,0.29,N,0.5,K,N*0F
$GPGGA,080225.482,5222.2514,N,00454.5538,E,1,03,2.1,-47.0,M,47.0,M,,0000*49
$GPGSA,A,2,21,16,24,,,,,,,,,,2.4,2.1,1.0*35
$GPRMC,080225.482,A,5222.2514,N,00454.5538,E,0.35,113.40,140109,,,A*6A
$GPVTG,113.40,T,,M,0.35,N,0.6,K,N*05
$GPGGA,080226.482,5222.2505,N,00454.5557,E,1,03,2.1,-47.0,M,47.0,M,,0000*43
$GPGSA,A,2,21,16,24,,,,,,,,,,2.4,2.1,1.0*35
$GPRMC,080226.482,A,5222.2505,N,00454.5557,E,0.35,112.40,140109,,,A*61
$GPVTG,112.40,T,,M,0.35,N,0.6,K,N*04
$GPGGA,080227.482,5222.2523,N,00454.5508,E,1,03,2.1,-47.0,M,47.0,M,,0000*4C
$GPGSA,A,2,21,16,24,,,,,,,,,,2.4,2.1,1.0*35
$GPRMC,080227.482,A,5222.2523,N,00454.5508,E,0.12,33.92,140109,,,A*56
$GPVTG,33.92,T,,M,0.12,N,0.2,K,N*38
$GPGGA,080228.482,5222.2540,N,00454.5451,E,1,03,2.1,-47.0,M,47.0,M,,0000*4B
$GPGSA,A,2,21,16,24,,,,,,,,,,2.4,2.1,1.0*35
$GPRMC,080228.482,A,5222.2540,N,00454.5451,E,0.08,14.08,140109,,,A*5C
$GPVTG,14.08,T,,M,0.08,N,0.2,K,N*35
$GPGGA,080229.486,5222.2554,N,00454.5411,E,1,03,2.1,-47.0,M,47.0,M,,0000*4F
$GPGSA,A,2,21,16,24,,,,,,,,,,2.4,2.1,1.0*35
$GPGSV,3,1,12,21,58,157,28,16,54,295,25,24,49,069,28,29,43,074,21*72
$GPGSV,3,2,12,31,31,210,28,06,22,260,22,10,17,044,,30,15,131,38*78
$GPGSV,3,3,12,13,09,324,19,03,08,263,,23,05,299,18,25,04,335,*79
$GPRMC,080229.486,A,5222.2554,N,00454.5411,E,0.88,119.13,140109,,,A*66
$GPVTG,119.13,T,,M,0.88,N,1.6,K,N*0E
$GPGGA,080230.482,5222.2537,N,00454.5472,E,1,03,2.1,-47.0,M,47.0,M,,0000*43
$GPGSA,A,2,21,16,24,,,,,,,,,,2.4,2.1,1.0*35
$GPRMC,080230.482,A,5222.2537,N,00454.5472,E,1.21,111.95,140109,,,A*6E
$GPVTG,111.95,T,,M,1.21,N,2.2,K,N*0D
$GPGGA,080231.482,5222.2527,N,00454.5504,E,1,03,2.1,-47.0,M,47.0,M,,0000*43
$GPGSA,A,2,21,16,24,,,,,,,,,,2.4,2.1,1.0*35
$GPRMC,080231.482,A,5222.2527,N,00454.5504,E,1.33,129.01,140109,,,A*6B
$GPVTG,129.01,T,,M,1.33,N,2.5,K,N*0F
$GPGGA,080234.482,5222.2497,N,00454.5545,E,1,04,2.1,-7.5,M,47.0,M,,0000*7F
$GPGSA,A,3,21,16,24,30,,,,,,,,,3.6,2.1,2.9*3E
$GPGSV,3,1,12,21,58,157,37,16,55,295,26,24,49,069,26,30,15,131,39*72
$GPGSV,3,2,12,29,43,074,29,31,31,209,27,06,22,260,21,10,17,044,*77
$GPGSV,3,3,12,13,09,324,19,03,08,263,,23,05,299,,25,04,335,*70
$GPRMC,080234.482,A,5222.2497,N,00454.5545,E,3.36,132.77,140109,,,A*6D
$GPVTG,132.77,T,,M,3.36,N,6.2,K,A*0F
$GPGGA,080235.482,5222.2527,N,00454.5538,E,1,04,2.1,-11.7,M,47.0,M,,0000*4B
$GPGSA,A,3,21,16,24,30,,,,,,,,,3.6,2.1,2.9*3E
$GPRMC,080235.482,A,5222.2527,N,00454.5538,E,2.88,146.10,140109,,,A*6A
$GPVTG,146.10,T,,M,2.88,N,5.3,K,A*0B
$GPGGA,080236.482,5222.2497,N,00454.5517,E,1,04,2.1,-13.3,M,47.0,M,,0000*49
$GPGSA,A,3,21,16,24,30,,,,,,,,,3.6,2.1,2.9*3E
$GPRMC,080236.482,A,5222.2497,N,00454.5517,E,1.95,149.23,140109,,,A*6E
$GPVTG,149.23,T,,M,1.95,N,3.6,K,A*08
$GPGGA,080237.000,5222.2499,N,00454.5532,E,1,04,2.1,-13.7,M,47.0,M,,0000*4B
$GPGSA,A,3,21,16,24,30,,,,,,,,,3.6,2.1,2.9*3E
$GPRMC,080237.000,A,5222.2499,N,00454.5532,E,3.06,157.23,140109,,,A*6F
$GPVTG,157.23,T,,M,3.06,N,5.7,K,A*08
$GPGGA,080238.000,5222.2475,N,00454.5521,E,1,04,2.1,-14.1,M,47.0,M,,0000*45
$GPGSA,A,3,21,16,24,30,,,,,,,,,3.6,2.1,2.9*3E
$GPRMC,080238.000,A,5222.2475,N,00454.5521,E,3.77,153.30,140109,,,A*60
$GPVTG,153.30,T,,M,3.77,N,7.0,K,A*0D
$GPGGA,080239.000,5222.2464,N,00454.5540,E,1,04,2.1,-11.5,M,47.0,M,,0000*42
$GPGSA,A,3,21,16,24,30,,,,,,,,,3.6,2.1,2.9*3E
$GPGSV,3,1,12,21,58,157,30,16,55,295,29,24,49,069,29,30,15,131,35*79
$GPGSV,3,2,12,29,43,074,28,31,31,209,40,06,22,260,20,10,17,044,27*73
$GPGSV,3,3,12,13,09,324,19,03,08,263,26,23,05,299,,25,04,335,*74
$GPVTG,160.49,T,,M,3.89,N,7.2,K,A*00
$GPGGA,080240.000,5222.2466,N,00454.5572,E,1,04,2.1,-11.4,M,47.0,M,,0000*4E
$GPGSA,A,3,21,16,24,30,,,,,,,,,3.6,2.1,2.9*3E
$GPRMC,080240.000,A,5222.2466,N,00454.5572,E,3.35,164.70,140109,,,A*6D
$GPVTG,164.70,T,,M,3.35,N,6.2,K,A*08
$GPGGA,080241.000,5222.2464,N,00454.5571,E,1,04,2.1,-16.2,M,47.0,M,,0000*4F
$GPGSA,A,3,21,16,24,30,,,,,,,,,3.6,2.1,2.9*3E
$GPRMC,080241.000,A,5222.2464,N,00454.5571,E,2.50,183.07,140109,,,A*66
$GPVTG,183.07,T,,M,2.50,N,4.6,K,A*05
$GPGGA,080242.000,5222.2451,N,00454.5556,E,1,04,2.1,-14.8,M,47.0,M,,0000*47
$GPGSA,A,3,21,16,24,30,,,,,,,,,3.6,2.1,2.9*3E
$GPRMC,080242.000,A,5222.2451,N,00454.5556,E,3.73,198.63,140109,,,A*6E
$GPVTG,198.63,T,,M,3.73,N,6.9,K,A*00
$GPGGA,080243.000,5222.2448,N,00454.5536,E,1,04,2.1,-15.4,M,47.0,M,,0000*45
$GPGSA,A,3,21,16,24,30,,,,,,,,,3.6,2.1,2.9*3E
$GPRMC,080243.000,A,5222.2448,N,00454.5536,E,2.92,227.40,140109,,,A*69
$GPVTG,227.40,T,,M,2.92,N,5.4,K,A*06
$GPGGA,080244.000,5222.2446,N,00454.5521,E,1,04,2.1,-14.8,M,47.0,M,,0000*47
$GPGSA,A,3,21,16,24,30,,,,,,,,,3.6,2.1,2.9*3E
$GPGSV,3,1,12,21,58,157,28,16,55,295,33,24,49,069,28,30,15,131,28*76
$GPGSV,3,2,12,29,43,074,29,31,31,209,33,06,22,260,20,10,17,044,23*72
$GPGSV,3,3,12,13,09,324,21,03,08,263,21,23,05,299,22,25,04,335,*78
$GPRMC,080244.000,A,5222.2446,N,00454.5521,E,1.97,219.54,140109,,,A*68
$GPVTG,219.54,T,,M,1.97,N,3.7,K,A*0D
$GPGGA,080245.000,5222.2443,N,00454.5512,E,1,04,2.1,-14.1,M,47.0,M,,0000*4A
$GPGSA,A,3,21,16,24,30,,,,,,,,,3.6,2.1,2.9*3E
$GPRMC,080245.000,A,5222.2443,N,00454.5512,E,1.17,219.54,140109,,,A*64
$GPVTG,219.54,T,,M,1.17,N,2.2,K,A*01
$GPGGA,080246.000,5222.2427,N,00454.5494,E,1,04,2.1,-11.2,M,47.0,M,,0000*42
$GPGSA,A,3,21,16,24,30,,,,,,,,,3.6,2.1,2.9*3E
$GPRMC,080246.000,A,5222.2427,N,00454.5494,E,3.20,231.72,140109,,,A*62
$GPVTG,231.72,T,,M,3.20,N,5.9,K,A*05
$GPGGA,080247.000,5222.2420,N,00454.5477,E,1,04,2.1,-7.6,M,47.0,M,,0000*7A
$GPGSA,A,3,21,16,24,30,,,,,,,,,3.6,2.1,2.9*3E
$GPRMC,080247.000,A,5222.2420,N,00454.5477,E,3.09,243.02,140109,,,A*60
$GPVTG,243.02,T,,M,3.09,N,5.7,K,A*02
$GPGGA,080248.000,5222.2406,N,00454.5465,E,1,04,2.1,-4.9,M,47.0,M,,0000*7E
$GPGSA,A,3,21,16,24,30,,,,,,,,,3.6,2.1,2.9*3E
$GPRMC,080248.000,A,5222.2406,N,00454.5465,E,3.07,225.93,140109,,,A*6E
$GPVTG,225.93,T,,M,3.07,N,5.7,K,A*04
$GPGGA,080249.000,5222.2406,N,00454.5455,E,1,04,2.1,-5.5,M,47.0,M,,0000*71
$GPGSA,A,3,21,16,24,30,,,,,,,,,3.6,2.1,2.9*3E
$GPGSV,3,1,12,21,58,157,28,16,55,295,27,24,49,069,25,29,43,074,28*75
$GPGSV,3,2,12,31,31,209,34,06,23,260,21,10,17,044,23,30,15,131,28*7F
$GPGSV,3,3,12,13,09,324,24,03,08,263,21,23,05,299,23,25,04,335,*7C
$GPRMC,080249.000,A,5222.2406,N,00454.5455,E,1.88,223.88,140109,,,A*65
$GPVTG,223.88,T,,M,1.88,N,3.5,K,A*09
$GPGGA,080250.000,5222.2397,N,00454.5457,E,1,04,2.1,-3.7,M,47.0,M,,0000*70
$GPGSA,A,3,21,16,24,30,,,,,,,,,3.6,2.1,2.9*3E
$GPRMC,080250.000,A,5222.2397,N,00454.5457,E,2.26,228.92,140109,,,A*67
$GPVTG,228.92,T,,M,2.26,N,4.2,K,A*0E
$GPGGA,080251.000,5222.2384,N,00454.5434,E,1,04,2.1,-2.9,M,47.0,M,,0000*79
$GPGSA,A,3,21,16,24,30,,,,,,,,,3.6,2.1,2.9*3E
$GPRMC,080251.000,A,5222.2384,N,00454.5434,E,3.62,232.30,140109,,,A*63
$GPVTG,232.30,T,,M,3.62,N,6.7,K,A*0B
$GPGGA,080252.000,5222.2378,N,00454.5424,E,1,04,2.1,-0.4,M,47.0,M,,0000*77
$GPGSA,A,3,21,16,24,30,,,,,,,,,3.6,2.1,2.9*3E
$GPRMC,080252.000,A,5222.2378,N,00454.5424,E,2.99,236.94,140109,,,A*6D
$GPVTG,236.94,T,,M,2.99,N,5.5,K,A*05
$GPGGA,080253.000,5222.2369,N,00454.5412,E,1,04,2.1,1.7,M,47.0,M,,0000*5C
$GPGSA,A,3,21,16,24,30,,,,,,,,,3.6,2.1,2.9*3E
$GPRMC,080253.000,A,5222.2369,N,00454.5412,E,3.74,231.70,140109,,,A*66
$GPVTG,231.70,T,,M,3.74,N,6.9,K,A*05
$GPGGA,080254.000,5222.2360,N,00454.5395,E,1,04,2.1,4.0,M,47.0,M,,0000*58
$GPGSA,A,3,21,16,24,30,,,,,,,,,3.6,2.1,2.9*3E
$GPGSV,3,1,12,21,58,157,29,16,55,295,34,24,49,069,25,29,43,074,29*77
$GPGSV,3,2,12,31,31,209,31,06,23,260,20,10,17,044,23,30,15,131,21*72
$GPGSV,3,3,12,13,09,324,33,03,08,263,21,23,05,299,19,25,04,335,*73
$GPVTG,230.77,T,,M,2.91,N,5.4,K,A*07
$GPGGA,080255.000,5222.2344,N,00454.5366,E,1,04,2.1,5.7,M,47.0,M,,0000*55
$GPGSA,A,3,21,16,24,30,,,,,,,,,3.6,2.1,2.9*3E
$GPRMC,080255.000,A,5222.2344,N,00454.5366,E,4.31,234.48,140109,,,A*63
$GPVTG,234.48,T,,M,4.31,N,8.0,K,A*0A
$GPGGA,080256.000,5222.2331,N,00454.5356,E,1,04,2.1,8.7,M,47.0,M,,0000*5A
$GPGSA,A,3,21,16,24,30,,,,,,,,,3.6,2.1,2.9*3E
$GPRMC,080256.000,A,5222.2331,N,00454.5356,E,3.88,222.76,140109,,,A*6E
$GPVTG,222.76,T,,M,3.88,N,7.2,K,A*08
$GPGGA,080257.000,5222.2312,N,00454.5347,E,1,04,2.1,10.4,M,47.0,M,,0000*60
$GPGSA,A,3,21,16,24,30,,,,,,,,,3.6,2.1,2.9*3E
$GPRMC,080257.000,A,5222.2312,N,00454.5347,E,3.40,202.33,140109,,,A*69
$GPVTG,202.33,T,,M,3.40,N,6.3,K,A*0F
$GPGGA,080258.000,5222.2305,N,00454.5350,E,1,04,2.1,12.2,M,47.0,M,,0000*6B
$GPGSA,A,3,21,16,24,30,,,,,,,,,3.6,2.1,2.9*3E
$GPRMC,080258.000,A,5222.2305,N,00454.5350,E,1.91,206.98,140109,,,A*6D
$GPVTG,206.98,T,,M,1.91,N,3.5,K,A*07
$GPGGA,080259.000,5222.2291,N,00454.5345,E,1,04,2.1,15.6,M,47.0,M,,0000*61
$GPGSA,A,3,21,16,24,30,,,,,,,,,3.6,2.1,2.9*3E
$GPGSV,3,1,12,21,58,157,29,16,55,295,18,24,49,069,26,29,43,074,29*7A
$GPGSV,3,2,12,31,31,209,34,06,23,260,,10,17,044,23,30,15,131,21*75
$GPGSV,3,3,12,13,09,324,24,03,08,263,22,23,05,299,19,25,04,335,*76
$GPRMC,080259.000,A,5222.2291,N,00454.5345,E,1.44,221.47,140109,,,A*6B
$GPVTG,221.47,T,,M,1.44,N,2.7,K,A*0B
$GPGGA,080300.000,5222.2276,N,00454.5308,E,1,04,2.1,14.7,M,47.0,M,,0000*6C
$GPGSA,A,3,21,16,24,30,,,,,,,,,3.6,2.1,2.9*3E
$GPRMC,080300.000,A,5222.2276,N,00454.5308,E,4.38,245.41,140109,,,A*6C
$GPVTG,245.41,T,,M,4.38,N,8.1,K,A*0D
$GPGGA,080301.000,5222.2268,N,00454.5282,E,1,03,3.2,14.5,M,47.0,M,,0000*66
$GPGSA,A,2,21,24,30,,,,,,,,,,3.4,3.2,1.0*32
$GPRMC,080301.000,A,5222.2268,N,00454.5282,E,4.18,257.53,140109,,,A*63
$GPVTG,257.53,T,,M,4.18,N,7.7,K,A*06
$GPGGA,080302.000,5222.2271,N,00454.5250,E,1,04,2.1,14.4,M,47.0,M,,0000*66
$GPGSA,A,3,21,16,24,30,,,,,,,,,3.6,2.1,2.9*3E
$GPRMC,080302.000,A,5222.2271,N,00454.5250,E,3.41,247.88,140109,,,A*6B
$GPVTG,247.88,T,,M,3.41,N,6.3,K,A*0F
$GPGGA,080303.000,5222.2268,N,00454.5228,E,1,04,2.1,14.7,M,47.0,M,,0000*63
$GPGSA,A,3,21,16,24,30,,,,,,,,,3.6,2.1,2.9*3E
$GPRMC,080303.000,A,5222.2268,N,00454.5228,E,2.93,256.08,140109,,,A*6B
$GPVTG,256.08,T,,M,2.93,N,5.4,K,A*0D
$GPGGA,080304.000,5222.2260,N,00454.5187,E,1,04,2.1,14.2,M,47.0,M,,0000*6F
$GPGSA,A,3,21,16,24,30,,,,,,,,,3.6,2.1,2.9*3E
$GPGSV,3,1,12,21,58,157,29,16,55,295,31,24,49,069,22,29,43,074,24*78
$GPGSV,3,2,12,31,31,209,32,06,23,260,,10,17,044,24,30,15,131,30*74
$GPGSV,3,3,12,13,09,324,23,03,08,263,25,23,05,299,,25,04,335,*7E
$GPRMC,080304.000,A,5222.2260,N,00454.5187,E,4.48,242.49,140109,,,A*62
$GPVTG,242.49,T,,M,4.48,N,8.3,K,A*07
$GPGGA,080305.000,5222.2240,N,00454.5125,E,1,04,2.1,12.5,M,47.0,M,,0000*65
$GPGSA,A,3,21,16,24,30,,,,,,,,,3.6,2.1,2.9*3E
$GPRMC,080305.000,A,5222.2240,N,00454.5125,E,6.37,241.81,140109,,,A*64
$GPVTG,241.81,T,,M,6.37,N,11.8,K,A*39
$GPGGA,080306.000,5222.2224,N,00454.5095,E,1,04,2.1,11.0,M,47.0,M,,0000*68
$GPGSA,A,3,21,16,24,30,,,,,,,,,3.6,2.1,2.9*3E
$GPRMC,080306.000,A,5222.2224,N,00454.5095,E,7.27,235.88,140109,,,A*65
$GPVTG,235.88,T,,M,7.27,N,13.5,K,A*3C
$GPGGA,080307.000,5222.2209,N,00454.5063,E,1,03,3.2,11.1,M,47.0,M,,0000*6B
$GPGSA,A,2,21,24,30,,,,,,,,,,3.4,3.2,1.0*32
$GPRMC,080307.000,A,5222.2209,N,00454.5063,E,6.63,237.19,140109,,,A*69
$GPVTG,237.19,T,,M,6.63,N,12.3,K,A*30
$GPGGA,080308.000,5222.2186,N,00454.5026,E,1,03,3.2,10.8,M,47.0,M,,0000*69
$GPGSA,A,2,21,24,30,,,,,,,,,,3.4,3.2,1.0*32
$GPRMC,080308.000,A,5222.2186,N,00454.5026,E,7.54,230.41,140109,,,A*6C
$GPVTG,230.41,T,,M,7.54,N,14.0,K,A*3A
$GPGGA,080309.000,5222.2159,N,00454.4984,E,1,03,3.2,10.0,M,47.0,M,,0000*62
$GPGSA,A,2,21,24,30,,,,,,,,,,3.4,3.2,1.0*32
$GPGSV,3,1,12,21,58,157,29,16,55,295,18,24,49,069,22,29,43,074,24*73
$GPGSV,3,2,12,31,31,209,33,06,23,260,,10,17,044,18,30,15,131,30*7A
$GPGSV,3,3,12,13,09,324,14,03,08,263,25,23,05,299,,25,04,335,*7A
$GPRMC,080309.000,A,5222.2159,N,00454.4984,E,9.78,226.40,140109,,,A*69
$GPGGA,080310.000,5222.2126,N,00454.4935,E,1,03,3.2,10.6,M,47.0,M,,0000*6E
$GPGSA,A,2,21,24,30,,,,,,,,,,3.4,3.2,1.0*32
$GPRMC,080310.000,A,5222.2126,N,00454.4935,E,11.75,226.37,140109,,,A*57
$GPVTG,226.37,T,,M,11.75,N,21.8,K,A*06
$GPGGA,080311.000,5222.2100,N,00454.4918,E,1,04,2.1,14.2,M,47.0,M,,0000*61
$GPGSA,A,3,21,16,24,30,,,,,,,,,3.6,2.1,2.9*3E
$GPRMC,080311.000,A,5222.2100,N,00454.4918,E,10.48,225.38,140109,,,A*5E
$GPVTG,225.38,T,,M,10.48,N,19.4,K,A*02
$GPGGA,080312.000,5222.2090,N,00454.4910,E,1,04,2.1,17.5,M,47.0,M,,0000*66
$GPGSA,A,3,21,16,24,30,,,,,,,,,3.6,2.1,2.9*3E
$GPRMC,080312.000,A,5222.2090,N,00454.4910,E,7.95,226.62,140109,,,A*67
$GPVTG,226.62,T,,M,7.95,N,14.7,K,A*36
$GPGGA,080313.000,5222.2081,N,00454.4913,E,1,04,2.1,21.4,M,47.0,M,,0000*60
$GPGSA,A,3,21,16,24,30,,,,,,,,,3.6,2.1,2.9*3E
$GPRMC,080313.000,A,5222.2081,N,00454.4913,E,5.68,221.52,140109,,,A*61
$GPVTG,221.52,T,,M,5.68,N,10.5,K,A*34
$GPGGA,080314.000,5222.2067,N,00454.4910,E,1,03,2.1,22.9,M,47.0,M,,0000*65
$GPGSA,A,2,21,16,24,,,,,,,,,,2.4,2.1,1.0*35
$GPGSV,3,1,12,21,58,157,32,16,55,295,19,24,49,069,27,29,43,074,29*70
$GPGSV,3,2,12,31,31,209,35,06,23,260,22,10,17,044,19,30,15,131,18*77
$GPGSV,3,3,12,13,09,324,13,03,08,263,25,23,05,299,,25,04,335,*7D
$GPRMC,080314.000,A,5222.2067,N,00454.4910,E,4.93,212.85,140109,,,A*62
$GPVTG,212.85,T,,M,4.93,N,9.1,K,A*07
$GPGGA,080315.000,5222.2045,N,00454.4894,E,1,04,2.1,24.7,M,47.0,M,,0000*66
$GPGSA,A,3,21,16,24,30,,,,,,,,,3.6,2.1,2.9*3E
$GPRMC,080315.000,A,5222.2045,N,00454.4894,E,5.63,199.64,140109,,,A*6F
$GPVTG,199.64,T,,M,5.63,N,10.4,K,A*3B
$GPGGA,080316.000,5222.2029,N,00454.4872,E,1,03,2.1,24.5,M,47.0,M,,0000*62
$GPGSA,A,2,21,16,24,,,,,,,,,,2.4,2.1,1.0*35
$GPRMC,080316.000,A,5222.2029,N,00454.4872,E,4.56,205.52,140109,,,A*6A
$GPVTG,205.52,T,,M,4.56,N,8.5,K,A*07
$GPGGA,080317.000,5222.2017,N,00454.4852,E,1,03,2.1,24.0,M,47.0,M,,0000*69
$GPGSA,A,2,21,16,24,,,,,,,,,,2.4,2.1,1.0*35
$GPRMC,080317.000,A,5222.2017,N,00454.4852,E,3.87,220.45,140109,,,A*6E
$GPVTG,220.45,T,,M,3.87,N,7.2,K,A*05
$GPGGA,080318.000,5222.2016,N,00454.4826,E,1,04,2.1,25.5,M,47.0,M,,0000*67
$GPGSA,A,3,21,16,24,30,,,,,,,,,3.6,2.1,2.9*3E
$GPRMC,080318.000,A,5222.2016,N,00454.4826,E,4.42,218.71,140109,,,A*61
$GPVTG,218.71,T,,M,4.42,N,8.2,K,A*08
$GPGGA,080319.000,5222.2009,N,00454.4814,E,1,04,2.1,26.8,M,47.0,M,,0000*67
$GPGSA,A,3,21,16,24,30,,,,,,,,,3.6,2.1,2.9*3E
$GPGSV,3,1,12,21,58,157,31,16,55,295,21,24,49,069,27,29,43,074,28*79
$GPGSV,3,2,12,31,31,209,34,06,23,260,21,10,17,044,19,30,15,131,19*74
$GPGSV,3,3,12,13,09,324,13,03,08,263,25,23,05,299,,25,04,335,*7D
$GPRMC,080319.000,A,5222.2009,N,00454.4814,E,3.14,227.84,140109,,,A*6D
$GPVTG,227.84,T,,M,3.14,N,5.8,K,A*0D
$GPGGA,080320.000,5222.1990,N,00454.4786,E,1,04,2.1,30.5,M,47.0,M,,0000*69
$GPGSA,A,3,21,16,24,30,,,,,,,,,3.6,2.1,2.9*3E
$GPRMC,080320.000,A,5222.1990,N,00454.4786,E,3.98,225.82,140109,,,A*69
$GPVTG,225.82,T,,M,3.98,N,7.4,K,A*03
$GPGGA,080321.000,5222.1965,N,00454.4744,E,1,04,2.1,31.7,M,47.0,M,,0000*6F
$GPGSA,A,3,21,16,24,30,,,,,,,,,3.6,2.1,2.9*3E
$GPRMC,080321.000,A,5222.1965,N,00454.4744,E,5.98,227.60,140109,,,A*64
$GPVTG,227.60,T,,M,5.98,N,11.1,K,A*39
$GPGGA,080322.000,5222.1954,N,00454.4700,E,1,04,2.1,34.0,M,47.0,M,,0000*6C
$GPGSA,A,3,21,16,24,30,,,,,,,,,3.6,2.1,2.9*3E
$GPRMC,080322.000,A,5222.1954,N,00454.4700,E,5.81,243.08,140109,,,A*61
$GPVTG,243.08,T,,M,5.81,N,10.8,K,A*35
$GPGGA,080323.000,5222.1938,N,00454.4650,E,1,04,2.1,34.8,M,47.0,M,,0000*6B
$GPGSA,A,3,21,16,24,30,,,,,,,,,3.6,2.1,2.9*3E
$GPRMC,080323.000,A,5222.1938,N,00454.4650,E,6.57,233.69,140109,,,A*66
$GPVTG,233.69,T,,M,6.57,N,12.2,K,A*35
$GPGGA,080324.000,5222.1924,N,00454.4601,E,1,04,2.1,36.0,M,47.0,M,,0000*6F
$GPGSA,A,3,21,16,24,30,,,,,,,,,3.6,2.1,2.9*3E
$GPGSV,3,1,12,21,58,157,31,16,55,295,29,24,49,069,26,29,43,074,26*7E
$GPGSV,3,2,12,31,31,209,37,06,23,260,22,10,17,044,20,30,15,131,20*74
$GPGSV,3,3,12,13,09,324,22,03,08,263,24,23,05,299,15,25,04,335,*7A
$GPRMC,080324.000,A,5222.1924,N,00454.4601,E,6.27,232.38,140109,,,A*6A
$GPVTG,232.38,T,,M,6.27,N,11.6,K,A*30
$GPGGA,080325.000,5222.1906,N,00454.4550,E,1,04,2.1,36.6,M,47.0,M,,0000*6F
$GPGSA,A,3,21,16,24,30,,,,,,,,,3.6,2.1,2.9*3E
$GPRMC,080325.000,A,5222.1906,N,00454.4550,E,6.73,220.67,140109,,,A*64
$GPVTG,220.67,T,,M,6.73,N,12.5,K,A*38
$GPGGA,080326.000,5222.1887,N,00454.4497,E,1,04,2.1,36.4,M,47.0,M,,0000*6C
$GPGSA,A,3,21,16,24,30,,,,,,,,,3.6,2.1,2.9*3E
$GPRMC,080326.000,A,5222.1887,N,00454.4497,E,7.92,224.13,140109,,,A*6C
$GPVTG,224.13,T,,M,7.92,N,14.7,K,A*35
$GPGGA,080327.000,5222.1860,N,00454.4463,E,1,04,2.1,36.7,M,47.0,M,,0000*6C
$GPGSA,A,3,21,16,24,30,,,,,,,,,3.6,2.1,2.9*3E
$GPRMC,080327.000,A,5222.1860,N,00454.4463,E,8.55,216.31,140109,,,A*6A
$GPVTG,216.31,T,,M,8.55,N,15.8,K,A*3E
$GPGGA,080328.000,5222.1835,N,00454.4427,E,1,04,2.1,36.4,M,47.0,M,,0000*60
$GPGSA,A,3,21,16,24,30,,,,,,,,,3.6,2.1,2.9*3E
$GPRMC,080328.000,A,5222.1835,N,00454.4427,E,8.66,220.25,140109,,,A*65
$GPVTG,220.25,T,,M,8.66,N,16.0,K,A*35
$GPGGA,080329.000,5222.1828,N,00454.4411,E,1,04,2.1,37.7,M,47.0,M,,0000*6A
$GPGSA,A,3,21,16,24,30,,,,,,,,,3.6,2.1,2.9*3E
$GPGSV,3,1,12,21,58,157,29,16,55,295,29,24,49,069,26,29,43,074,26*77
$GPGSV,3,2,12,31,31,209,33,06,23,260,21,10,17,044,19,30,15,131,20*79
$GPGSV,3,3,12,13,09,324,21,03,08,263,23,23,05,299,17,25,04,335,*7C
$GPRMC,080329.000,A,5222.1828,N,00454.4411,E,6.86,220.43,140109,,,A*6D
$GPVTG,220.43,T,,M,6.86,N,12.7,K,A*36
$GPGGA,080330.000,5222.1823,N,00454.4390,E,1,04,2.1,38.9,M,47.0,M,,0000*66
$GPGSA,A,3,21,16,24,30,,,,,,,,,3.6,2.1,2.9*3E
$GPRMC,080330.000,A,5222.1823,N,00454.4390,E,4.86,225.94,140109,,,A*6D
$GPVTG,225.94,T,,M,4.86,N,9.0,K,A*06
$GPGGA,080331.000,5222.1796,N,00454.4334,E,1,04,2.1,37.1,M,47.0,M,,0000*6F
$GPGSA,A,3,21,16,24,30,,,,,,,,,3.6,2.1,2.9*3E
$GPRMC,080331.000,A,5222.1796,N,00454.4334,E,8.20,224.45,140109,,,A*6E
$GPVTG,224.45,T,,M,8.20,N,15.2,K,A*34
$GPGGA,080332.000,5222.1787,N,00454.4295,E,1,04,2.1,36.4,M,47.0,M,,0000*62
$GPGSA,A,3,21,16,24,30,,,,,,,,,3.6,2.1,2.9*3E
$GPRMC,080332.000,A,5222.1787,N,00454.4295,E,7.84,238.71,140109,,,A*6C
$GPVTG,238.71,T,,M,7.84,N,14.5,K,A*39
$GPGGA,080333.000,5222.1780,N,00454.4266,E,1,04,2.1,36.4,M,47.0,M,,0000*68
$GPGSA,A,3,21,16,24,30,,,,,,,,,3.6,2.1,2.9*3E
$GPRMC,080333.000,A,5222.1780,N,00454.4266,E,6.46,244.56,140109,,,A*67
$GPVTG,244.56,T,,M,6.46,N,12.0,K,A*3B
$GPGGA,080334.000,5222.1777,N,00454.4235,E,1,04,2.1,36.1,M,47.0,M,,0000*64
$GPGSA,A,3,21,16,24,30,,,,,,,,,3.6,2.1,2.9*3E
$GPGSV,3,1,12,21,58,157,30,16,55,295,28,24,49,069,26,29,43,074,26*7E
$GPGSV,3,2,12,31,31,209,33,06,23,260,25,10,17,044,19,30,15,131,21*7C
$GPGSV,3,3,12,13,09,324,18,03,08,263,23,23,05,299,20,25,04,335,*72
$GPRMC,080334.000,A,5222.1777,N,00454.4235,E,5.06,245.42,140109,,,A*6D
$GPVTG,245.42,T,,M,5.06,N,9.4,K,A*06
$GPGGA,080335.000,5222.1782,N,00454.4224,E,1,04,2.1,36.5,M,47.0,M,,0000*6B
$GPGSA,A,3,21,16,24,30,,,,,,,,,3.6,2.1,2.9*3E
$GPRMC,080335.000,A,5222.1782,N,00454.4224,E,3.75,258.91,140109,,,A*66
$GPVTG,258.91,T,,M,3.75,N,6.9,K,A*04
$GPGGA,080336.000,5222.1780,N,00454.4206,E,1,04,2.1,36.6,M,47.0,M,,0000*69
$GPGSA,A,3,21,16,24,30,,,,,,,,,3.6,2.1,2.9*3E
$GPRMC,080336.000,A,5222.1780,N,00454.4206,E,3.45,248.86,140109,,,A*63
$GPVTG,248.86,T,,M,3.45,N,6.4,K,A*0D
$GPGGA,080337.000,5222.1764,N,00454.4179,E,1,04,2.1,37.6,M,47.0,M,,0000*68
$GPGSA,A,3,21,16,24,30,,,,,,,,,3.6,2.1,2.9*3E
$GPRMC,080337.000,A,5222.1764,N,00454.4179,E,4.97,221.48,140109,,,A*66
$GPVTG,221.48,T,,M,4.97,N,9.2,K,A*01
$GPGGA,080338.000,5222.1751,N,00454.4153,E,1,04,2.1,38.4,M,47.0,M,,0000*64
$GPGSA,A,3,21,16,24,30,,,,,,,,,3.6,2.1,2.9*3E
$GPRMC,080338.000,A,5222.1751,N,00454.4153,E,4.84,233.80,140109,,,A*62
$GPVTG,233.80,T,,M,4.84,N,9.0,K,A*06
$GPGGA,080339.000,5222.1738,N,00454.4123,E,1,04,2.1,40.2,M,47.0,M,,0000*64
$GPGSA,A,3,21,16,24,30,,,,,,,,,3.6,2.1,2.9*3E
$GPGSV,3,1,12,21,58,157,31,16,55,295,32,24,49,069,26,29,43,074,27*75
$GPGSV,3,2,12,31,31,209,30,06,23,260,,10,17,044,30,30,15,131,18*79
$GPGSV,3,3,12,13,09,324,19,03,08,263,23,23,05,299,19,25,04,335,*79
$GPRMC,080339.000,A,5222.1738,N,00454.4123,E,5.00,237.78,140109,,,A*65
$GPGGA,080340.000,5222.1724,N,00454.4091,E,1,04,2.1,41.8,M,47.0,M,,0000*64
$GPGSA,A,3,21,16,24,30,,,,,,,,,3.6,2.1,2.9*3E
$GPRMC,080340.000,A,5222.1724,N,00454.4091,E,4.21,242.76,140109,,,A*60
$GPVTG,242.76,T,,M,4.21,N,7.8,K,A*00
$GPGGA,080341.000,5222.1697,N,00454.4035,E,1,04,2.1,42.4,M,47.0,M,,0000*6D
$GPGSA,A,3,21,16,24,30,,,,,,,,,3.6,2.1,2.9*3E
$GPRMC,080341.000,A,5222.1697,N,00454.4035,E,7.37,243.41,140109,,,A*67
$GPVTG,243.41,T,,M,7.37,N,13.6,K,A*3A
$GPGGA,080342.000,5222.1681,N,00454.3996,E,1,04,2.1,43.2,M,47.0,M,,0000*69
$GPGSA,A,3,21,16,24,30,,,,,,,,,3.6,2.1,2.9*3E
$GPRMC,080342.000,A,5222.1681,N,00454.3996,E,7.05,233.15,140109,,,A*63
$GPVTG,233.15,T,,M,7.05,N,13.0,K,A*3B
$GPGGA,080343.000,5222.1664,N,00454.3904,E,1,04,2.1,39.4,M,47.0,M,,0000*63
$GPGSA,A,3,21,16,24,30,,,,,,,,,3.6,2.1,2.9*3E
$GPRMC,080343.000,A,5222.1664,N,00454.3904,E,8.24,224.33,140109,,,A*6C
$GPVTG,224.33,T,,M,8.24,N,15.3,K,A*30
$GPGGA,080344.000,5222.1662,N,00454.3856,E,1,04,2.1,36.4,M,47.0,M,,0000*6B
$GPGSA,A,3,21,16,24,30,,,,,,,,,3.6,2.1,2.9*3E
$GPGSV,3,1,12,21,58,157,30,16,55,295,36,24,49,069,25,29,43,074,26*72
$GPGSV,3,2,12,31,31,209,31,06,23,260,25,10,17,044,19,30,15,131,17*7B
$GPGSV,3,3,12,13,09,324,23,03,08,263,23,23,05,299,18,25,04,335,*71
$GPRMC,080344.000,A,5222.1662,N,00454.3856,E,6.29,218.95,140109,,,A*6B
$GPVTG,218.95,T,,M,6.29,N,11.7,K,A*30
$GPGGA,080345.000,5222.1651,N,00454.3806,E,1,04,2.1,33.2,M,47.0,M,,0000*6C
$GPGSA,A,3,21,16,24,30,,,,,,,,,3.6,2.1,2.9*3E
$GPRMC,080345.000,A,5222.1651,N,00454.3806,E,6.65,230.78,140109,,,A*6E
$GPVTG,230.78,T,,M,6.65,N,12.3,K,A*36
$GPGGA,080346.000,5222.1653,N,00454.3768,E,1,04,2.1,31.0,M,47.0,M,,0000*6A
$GPGSA,A,3,21,16,24,30,,,,,,,,,3.6,2.1,2.9*3E
$GPRMC,080346.000,A,5222.1653,N,00454.3768,E,5.39,252.31,140109,,,A*6B
$GPVTG,252.31,T,,M,5.39,N,10.0,K,A*34
$GPGGA,080347.000,5222.1653,N,00454.3744,E,1,04,2.1,28.2,M,47.0,M,,0000*6F
$GPGSA,A,3,21,16,24,30,,,,,,,,,3.6,2.1,2.9*3E
$GPRMC,080347.000,A,5222.1653,N,00454.3744,E,4.14,237.02,140109,,,A*69
$GPVTG,237.02,T,,M,4.14,N,7.7,K,A*08
$GPGGA,080348.000,5222.1647,N,00454.3705,E,1,04,2.1,23.5,M,47.0,M,,0000*6C
$GPGSA,A,3,21,16,24,30,,,,,,,,,3.6,2.1,2.9*3E
$GPRMC,080348.000,A,5222.1647,N,00454.3705,E,3.59,247.28,140109,,,A*67
$GPVTG,247.28,T,,M,3.59,N,6.7,K,A*08
$GPGGA,080349.000,5222.1635,N,00454.3678,E,1,04,2.1,23.7,M,47.0,M,,0000*61
$GPGSA,A,3,21,16,24,30,,,,,,,,,3.6,2.1,2.9*3E
$GPGSV,3,1,12,21,58,157,30,16,55,295,27,24,49,069,25,29,43,074,26*72
$GPGSV,3,2,12,31,31,209,37,06,23,260,19,10,17,044,20,30,15,131,18*77
$GPGSV,3,3,12,13,09,324,20,03,08,263,18,23,05,299,17,25,04,335,*75
$GPRMC,080349.000,A,5222.1635,N,00454.3678,E,3.58,245.88,140109,,,A*61
$GPVTG,245.88,T,,M,3.58,N,6.6,K,A*00
$GPGGA,080350.000,5222.1637,N,00454.3657,E,1,04,2.1,22.9,M,47.0,M,,0000*69
$GPGSA,A,3,21,16,24,30,,,,,,,,,3.6,2.1,2.9*3E
$GPRMC,080350.000,A,5222.1637,N,00454.3657,E,4.02,263.20,140109,,,A*68
$GPVTG,263.20,T,,M,4.02,N,7.5,K,A*0C
$GPGGA,080351.000,5222.1628,N,00454.3619,E,1,04,2.1,21.6,M,47.0,M,,0000*60
$GPGSA,A,3,21,16,24,30,,,,,,,,,3.6,2.1,2.9*3E
$GPRMC,080351.000,A,5222.1628,N,00454.3619,E,5.15,269.27,140109,,,A*67
$GPVTG,269.27,T,,M,5.15,N,9.5,K,A*08
$GPGGA,080352.000,5222.1619,N,00454.3579,E,1,04,2.1,21.5,M,47.0,M,,0000*67
$GPGSA,A,3,21,16,24,30,,,,,,,,,3.6,2.1,2.9*3E
$GPRMC,080352.000,A,5222.1619,N,00454.3579,E,5.87,262.03,140109,,,A*65
$GPVTG,262.03,T,,M,5.87,N,10.9,K,A*3A
$GPGGA,080353.000,5222.1615,N,00454.3558,E,1,04,2.1,22.4,M,47.0,M,,0000*6B
$GPGSA,A,3,21,16,24,30,,,,,,,,,3.6,2.1,2.9*3E
$GPRMC,080353.000,A,5222.1615,N,00454.3558,E,5.12,269.68,140109,,,A*61
$GPVTG,269.68,T,,M,5.12,N,9.5,K,A*04
$GPGGA,080354.000,5222.1600,N,00454.3535,E,1,04,2.1,25.3,M,47.0,M,,0000*63
$GPGSA,A,3,21,16,24,30,,,,,,,,,3.6,2.1,2.9*3E
$GPGSV,3,1,12,21,58,157,37,16,55,295,21,24,49,069,24,29,43,074,27*73
$GPGSV,3,2,12,31,31,209,33,06,23,260,20,10,17,044,19,30,15,131,18*73
$GPGSV,3,3,12,13,09,324,18,03,08,263,18,23,05,299,17,25,04,335,*7E
$GPRMC,080354.000,A,5222.1600,N,00454.3535,E,4.58,253.64,140109,,,A*63
$GPGGA,080355.000,5222.1584,N,00454.3517,E,1,04,2.1,27.7,M,47.0,M,,0000*6B
$GPGSA,A,3,21,16,24,30,,,,,,,,,3.6,2.1,2.9*3E
$GPRMC,080355.000,A,5222.1584,N,00454.3517,E,5.08,248.83,140109,,,A*6A
$GPVTG,248.83,T,,M,5.08,N,9.4,K,A*08
$GPGGA,080356.000,5222.1567,N,00454.3478,E,1,04,2.1,29.5,M,47.0,M,,0000*61
$GPGSA,A,3,21,16,24,30,,,,,,,,,3.6,2.1,2.9*3E
$GPRMC,080356.000,A,5222.1567,N,00454.3478,E,7.24,248.88,140109,,,A*6B
$GPVTG,248.88,T,,M,7.24,N,13.4,K,A*34
$GPGGA,080357.000,5222.1546,N,00454.3410,E,1,04,2.1,29.0,M,47.0,M,,0000*68
$GPGSA,A,3,21,16,24,30,,,,,,,,,3.6,2.1,2.9*3E
$GPRMC,080357.000,A,5222.1546,N,00454.3410,E,8.91,239.15,140109,,,A*64
$GPVTG,239.15,T,,M,8.91,N,16.5,K,A*33
$GPGGA,080358.000,5222.1532,N,00454.3354,E,1,04,2.1,29.0,M,47.0,M,,0000*63
$GPGSA,A,3,21,16,24,30,,,,,,,,,3.6,2.1,2.9*3E
$GPRMC,080358.000,A,5222.1532,N,00454.3354,E,8.97,241.14,140109,,,A*67
$GPVTG,241.14,T,,M,8.97,N,16.6,K,A*38
$GPGGA,080359.000,5222.1516,N,00454.3311,E,1,04,2.1,27.9,M,47.0,M,,0000*62
$GPGSA,A,3,21,16,24,30,,,,,,,,,3.6,2.1,2.9*3E
$GPGSV,3,1,12,21,58,157,32,16,55,295,28,24,49,069,24,29,43,074,26*7E
$GPGSV,3,2,12,31,31,209,30,06,23,260,21,10,17,044,20,30,15,131,19*7A
$GPGSV,3,3,12,13,09,324,19,03,08,263,19,23,05,299,17,25,04,335,*7E
$GPRMC,080359.000,A,5222.1516,N,00454.3311,E,7.80,241.20,140109,,,A*6F
$GPVTG,241.20,T,,M,7.80,N,14.4,K,A*36
$GPGGA,080400.000,5222.1495,N,00454.3249,E,1,04,2.1,28.2,M,47.0,M,,0000*6B
$GPGSA,A,3,21,16,24,30,,,,,,,,,3.6,2.1,2.9*3E
$GPRMC,080400.000,A,5222.1495,N,00454.3249,E,9.46,241.45,140109,,,A*65
$GPVTG,241.45,T,,M,9.46,N,17.5,K,A*33
$GPGGA,080401.000,5222.1477,N,00454.3203,E,1,04,2.1,29.5,M,47.0,M,,0000*6E
$GPGSA,A,3,21,16,24,30,,,,,,,,,3.6,2.1,2.9*3E
$GPRMC,080401.000,A,5222.1477,N,00454.3203,E,9.56,240.76,140109,,,A*66
$GPVTG,240.76,T,,M,9.56,N,17.7,K,A*31
$GPGGA,080402.000,5222.1468,N,00454.3170,E,1,04,2.1,31.7,M,47.0,M,,0000*6F
$GPGSA,A,3,21,16,24,30,,,,,,,,,3.6,2.1,2.9*3E
$GPRMC,080402.000,A,5222.1468,N,00454.3170,E,8.85,245.12,140109,,,A*64
$GPVTG,245.12,T,,M,8.85,N,16.4,K,A*3B
$GPGGA,080403.000,5222.1441,N,00454.3118,E,1,04,2.1,31.7,M,47.0,M,,0000*6B
$GPGSA,A,3,21,16,24,30,,,,,,,,,3.6,2.1,2.9*3E
$GPRMC,080403.000,A,5222.1441,N,00454.3118,E,10.19,243.96,140109,,,A*56
$GPVTG,243.96,T,,M,10.19,N,18.9,K,A*0E
$GPGGA,080404.000,5222.1394,N,00454.3028,E,1,04,2.1,28.3,M,47.0,M,,0000*6D
$GPGSA,A,3,21,16,24,30,,,,,,,,,3.6,2.1,2.9*3E
$GPGSV,3,1,12,21,58,157,31,16,55,295,26,24,49,069,24,29,43,074,26*73
$GPGSV,3,2,12,31,31,209,30,06,23,260,24,10,17,044,17,30,15,131,24*75
$GPGSV,3,3,12,13,09,324,19,03,08,263,19,23,05,299,17,25,04,335,*7E
$GPRMC,080404.000,A,5222.1394,N,00454.3028,E,14.34,231.09,140109,,,A*54
$GPVTG,231.09,T,,M,14.34,N,26.6,K,A*04
$GPGGA,080405.000,5222.1337,N,00454.2925,E,1,04,2.1,24.1,M,47.0,M,,0000*6E
$GPGSA,A,3,21,16,24,30,,,,,,,,,3.6,2.1,2.9*3E
$GPRMC,080405.000,A,5222.1337,N,00454.2925,E,19.00,229.42,140109,,,A*55
$GPVTG,229.42,T,,M,19.00,N,35.2,K,A*0E
$GPGGA,080406.000,5222.1318,N,00454.2864,E,1,04,2.1,21.0,M,47.0,M,,0000*60
$GPGSA,A,3,21,16,24,30,,,,,,,,,3.6,2.1,2.9*3E
$GPRMC,080406.000,A,5222.1318,N,00454.2864,E,17.17,235.33,140109,,,A*5C
$GPVTG,235.33,T,,M,17.17,N,31.8,K,A*03
$GPGGA,080407.000,5222.1317,N,00454.2827,E,1,04,2.1,17.5,M,47.0,M,,0000*69
$GPGSA,A,3,21,16,24,30,,,,,,,,,3.6,2.1,2.9*3E
$GPRMC,080407.000,A,5222.1317,N,00454.2827,E,13.07,242.68,140109,,,A*5E
$GPVTG,242.68,T,,M,13.07,N,24.2,K,A*06
$GPGGA,080408.000,5222.1295,N,00454.2765,E,1,04,2.1,13.9,M,47.0,M,,0000*6C
$GPGSA,A,3,21,16,24,30,,,,,,,,,3.6,2.1,2.9*3E
$GPRMC,080408.000,A,5222.1295,N,00454.2765,E,13.85,236.50,140109,,,A*51
$GPVTG,236.50,T,,M,13.85,N,25.6,K,A*01
$GPGGA,080409.000,5222.1295,N,00454.2738,E,1,04,2.1,11.2,M,47.0,M,,0000*6C
$GPGSA,A,3,21,16,24,30,,,,,,,,,3.6,2.1,2.9*3E
$GPGSV,3,1,12,21,58,157,31,16,55,295,35,24,49,069,24,29,43,074,25*72
$GPGSV,3,2,12,31,31,209,30,06,23,260,22,10,17,044,22,30,15,131,25*74
$GPGSV,3,3,12,13,09,324,28,03,08,263,18,23,05,299,19,25,04,335,*73
$GPRMC,080409.000,A,5222.1295,N,00454.2738,E,10.41,236.70,140109,,,A*51
$GPGGA,080410.000,5222.1288,N,00454.2707,E,1,03,2.2,9.6,M,47.0,M,,0000*5D
$GPGSA,A,2,21,16,24,,,,,,,,,,2.4,2.2,1.0*36
$GPRMC,080410.000,A,5222.1288,N,00454.2707,E,8.91,234.96,140109,,,A*67
$GPVTG,234.96,T,,M,8.91,N,16.5,K,N*3A
$GPGGA,080411.000,5222.1280,N,00454.2690,E,1,03,2.2,10.0,M,47.0,M,,0000*65
$GPGSA,A,2,21,16,24,,,,,,,,,,2.4,2.2,1.0*36
$GPRMC,080411.000,A,5222.1280,N,00454.2690,E,7.10,238.45,140109,,,A*65
$GPVTG,238.45,T,,M,7.10,N,13.1,K,N*3F
$GPGGA,080412.000,5222.1272,N,00454.2675,E,1,03,2.2,10.5,M,47.0,M,,0000*65
$GPGSA,A,2,21,16,24,,,,,,,,,,2.4,2.2,1.0*36
$GPRMC,080412.000,A,5222.1272,N,00454.2675,E,5.94,243.92,140109,,,A*68
$GPVTG,243.92,T,,M,5.94,N,11.0,K,N*34
$GPGGA,080413.000,5222.1263,N,00454.2660,E,1,03,2.2,10.5,M,47.0,M,,0000*60
$GPGSA,A,2,21,16,24,,,,,,,,,,2.4,2.2,1.0*36
$GPRMC,080413.000,A,5222.1263,N,00454.2660,E,5.80,232.99,140109,,,A*65
$GPVTG,232.99,T,,M,5.80,N,10.7,K,N*3A
$GPGGA,080414.000,5222.1242,N,00454.2643,E,1,03,2.2,10.7,M,47.0,M,,0000*67
$GPGSA,A,2,21,16,24,,,,,,,,,,2.4,2.2,1.0*36
$GPGSV,3,1,12,21,58,157,30,16,55,295,19,24,49,069,23,29,43,074,25*7A
$GPGSV,3,2,12,31,31,209,34,06,23,260,17,10,17,044,19,30,15,131,*79
$GPGSV,3,3,12,13,09,324,16,03,08,263,17,23,05,299,17,25,04,335,*7F
$GPRMC,080414.000,A,5222.1242,N,00454.2643,E,5.38,215.45,140109,,,A*67
$GPVTG,215.45,T,,M,5.38,N,10.0,K,N*3A
$GPGGA,080415.000,5222.1228,N,00454.2641,E,1,03,2.2,10.9,M,47.0,M,,0000*66
$GPGSA,A,2,21,16,24,,,,,,,,,,2.4,2.2,1.0*36
$GPRMC,080415.000,A,5222.1228,N,00454.2641,E,4.65,211.54,140109,,,A*65
$GPVTG,211.54,T,,M,4.65,N,8.6,K,N*08
$GPGGA,080416.000,5222.1211,N,00454.2634,E,1,03,2.2,11.2,M,47.0,M,,0000*67
$GPGSA,A,2,21,16,24,,,,,,,,,,2.4,2.2,1.0*36
$GPRMC,080416.000,A,5222.1211,N,00454.2634,E,3.71,223.30,140109,,,A*6F
$GPVTG,223.30,T,,M,3.71,N,6.9,K,N*08
$GPGGA,080417.000,5222.1191,N,00454.2620,E,1,03,2.2,11.2,M,47.0,M,,0000*68
$GPGSA,A,2,21,16,24,,,,,,,,,,2.4,2.2,1.0*36
$GPRMC,080417.000,A,5222.1191,N,00454.2620,E,3.74,224.60,140109,,,A*67
$GPVTG,224.60,T,,M,3.74,N,6.9,K,A*00
$GPGGA,080418.000,5222.1173,N,00454.2630,E,1,03,2.2,11.5,M,47.0,M,,0000*6D
$GPGSA,A,2,21,16,24,,,,,,,,,,2.4,2.2,1.0*36
$GPRMC,080418.000,A,5222.1173,N,00454.2630,E,3.13,223.99,140109,,,A*65
$GPVTG,223.99,T,,M,3.13,N,5.8,K,A*02
$GPGGA,080419.000,5222.1157,N,00454.2617,E,1,03,2.2,11.3,M,47.0,M,,0000*69
$GPGSA,A,2,21,16,24,,,,,,,,,,2.4,2.2,1.0*36
$GPGSV,3,1,12,21,58,157,30,16,55,295,19,24,49,069,23,29,43,074,25*7A
$GPGSV,3,2,12,31,31,209,34,06,23,260,33,10,17,044,18,30,15,131,21*7D
$GPGSV,3,3,12,13,09,324,14,03,08,263,17,23,05,299,17,25,04,335,*7D
$GPRMC,080419.000,A,5222.1157,N,00454.2617,E,2.27,229.76,140109,,,A*6A
$GPVTG,229.76,T,,M,2.27,N,4.2,K,A*04
$GPGGA,080420.000,5222.1147,N,00454.2607,E,1,04,2.1,10.9,M,47.0,M,,0000*6C
$GPGSA,A,3,21,16,24,30,,,,,,,,,3.6,2.1,2.9*3E
$GPRMC,080420.000,A,5222.1147,N,00454.2607,E,2.87,231.57,140109,,,A*60
$GPVTG,231.57,T,,M,2.87,N,5.3,K,A*04
$GPGGA,080421.000,5222.1144,N,00454.2573,E,1,04,2.1,9.8,M,47.0,M,,0000*57
$GPGSA,A,3,21,16,24,30,,,,,,,,,3.6,2.1,2.9*3E
$GPRMC,080421.000,A,5222.1144,N,00454.2573,E,3.83,227.03,140109,,,A*61
$GPVTG,227.03,T,,M,3.83,N,7.1,K,A*07
$GPGGA,080422.000,5222.1148,N,00454.2510,E,1,04,2.1,13.4,M,47.0,M,,0000*6A
$GPGSA,A,3,21,16,24,30,,,,,,,,,3.6,2.1,2.9*3E
$GPRMC,080422.000,A,5222.1148,N,00454.2510,E,4.60,241.23,140109,,,A*63
$GPVTG,241.23,T,,M,4.60,N,8.5,K,A*04
$GPGGA,080423.000,5222.1158,N,00454.2464,E,1,04,2.1,14.4,M,47.0,M,,0000*6F
$GPGSA,A,3,21,16,24,30,,,,,,,,,3.6,2.1,2.9*3E
$GPRMC,080423.000,A,5222.1158,N,00454.2464,E,3.75,249.19,140109,,,A*63
$GPVTG,249.19,T,,M,3.75,N,7.0,K,A*0C
$GPGGA,080424.000,5222.1146,N,00454.2409,E,1,04,2.1,11.7,M,47.0,M,,0000*6A
$GPGSA,A,3,21,16,24,30,,,,,,,,,3.6,2.1,2.9*3E
$GPGSV,3,1,12,21,58,157,29,16,55,295,34,24,49,069,23,29,43,074,25*7D
$GPGSV,3,2,12,31,31,209,36,06,23,260,26,10,17,044,17,30,15,131,29*7C
$GPGSV,3,3,12,13,09,324,15,03,08,263,17,23,05,299,27,25,04,335,*7F
$GPRMC,080424.000,A,5222.1146,N,00454.2409,E,5.01,226.54,140109,,,A*65
$GPVTG,226.54,T,,M,5.01,N,9.3,K,A*04
$GPGGA,080425.000,5222.1124,N,00454.2357,E,1,04,2.1,8.4,M,47.0,M,,0000*58
$GPGSA,A,3,21,16,24,30,,,,,,,,,3.6,2.1,2.9*3E
$GPRMC,080425.000,A,5222.1124,N,00454.2357,E,6.30,224.76,140109,,,A*6F
$GPVTG,224.76,T,,M,6.30,N,11.7,K,A*3A
$GPGGA,080426.000,5222.1111,N,00454.2323,E,1,04,2.1,8.8,M,47.0,M,,0000*52
$GPGSA,A,3,21,16,24,30,,,,,,,,,3.6,2.1,2.9*3E
$GPRMC,080426.000,A,5222.1111,N,00454.2323,E,5.93,235.83,140109,,,A*69
$GPVTG,235.83,T,,M,5.93,N,11.0,K,A*3D
$GPGGA,080427.000,5222.1112,N,00454.2298,E,1,04,2.1,10.0,M,47.0,M,,0000*60
$GPGSA,A,3,21,16,24,30,,,,,,,,,3.6,2.1,2.9*3E
$GPRMC,080427.000,A,5222.1112,N,00454.2298,E,5.79,250.18,140109,,,A*6F
$GPVTG,250.18,T,,M,5.79,N,10.7,K,A*3E
$GPGGA,080428.000,5222.1124,N,00454.2272,E,1,04,2.1,10.0,M,47.0,M,,0000*6E
$GPGSA,A,3,21,16,24,30,,,,,,,,,3.6,2.1,2.9*3E
$GPRMC,080428.000,A,5222.1124,N,00454.2272,E,4.95,271.72,140109,,,A*6D
$GPVTG,271.72,T,,M,4.95,N,9.2,K,A*0F
$GPGGA,080429.000,5222.1123,N,00454.2245,E,1,04,2.1,11.0,M,47.0,M,,0000*6D
$GPGSA,A,3,21,16,24,30,,,,,,,,,3.6,2.1,2.9*3E
$GPGSV,3,1,12,21,58,157,29,16,55,295,27,24,49,069,31,29,43,074,29*70
$GPGSV,3,2,12,31,31,209,30,06,23,260,27,10,17,044,16,30,15,131,28*7B
$GPGSV,3,3,12,13,09,324,16,03,08,263,18,23,05,299,22,25,04,335,*76
$GPRMC,080429.000,A,5222.1123,N,00454.2245,E,4.98,255.63,140109,,,A*64
$GPVTG,255.63,T,,M,4.98,N,9.2,K,A*04
$GPGGA,080430.000,5222.1124,N,00454.2214,E,1,04,2.1,10.6,M,47.0,M,,0000*61
$GPGSA,A,3,21,16,24,30,,,,,,,,,3.6,2.1,2.9*3E
$GPRMC,080430.000,A,5222.1124,N,00454.2214,E,4.62,270.86,140109,,,A*66
$GPVTG,270.86,T,,M,4.62,N,8.6,K,A*08
$GPGGA,080431.000,5222.1133,N,00454.2181,E,1,04,2.1,9.8,M,47.0,M,,0000*5F
$GPGSA,A,3,21,16,24,30,,,,,,,,,3.6,2.1,2.9*3E
$GPRMC,080431.000,A,5222.1133,N,00454.2181,E,5.40,293.72,140109,,,A*69
$GPVTG,293.72,T,,M,5.40,N,10.0,K,A*30
$GPGGA,080432.000,5222.1146,N,00454.2155,E,1,04,2.1,8.4,M,47.0,M,,0000*5A
$GPGSA,A,3,21,16,24,30,,,,,,,,,3.6,2.1,2.9*3E
$GPRMC,080432.000,A,5222.1146,N,00454.2155,E,4.56,293.50,140109,,,A*67
$GPVTG,293.50,T,,M,4.56,N,8.5,K,A*0A
$GPGGA,080433.000,5222.1157,N,00454.2130,E,1,04,2.1,4.9,M,47.0,M,,0000*59
$GPGSA,A,3,21,16,24,30,,,,,,,,,3.6,2.1,2.9*3E
$GPRMC,080433.000,A,5222.1157,N,00454.2130,E,4.24,311.32,140109,,,A*6F
$GPVTG,311.32,T,,M,4.24,N,7.9,K,A*03
$GPGGA,080434.000,5222.1168,N,00454.2109,E,1,04,2.1,1.9,M,47.0,M,,0000*5D
$GPGSA,A,3,21,16,24,30,,,,,,,,,3.6,2.1,2.9*3E
$GPGSV,3,1,12,21,58,157,28,16,55,295,27,24,49,069,29,29,43,074,32*72
$GPGSV,3,2,12,31,31,209,34,06,23,260,25,10,17,044,17,30,15,131,27*73
$GPGSV,3,3,12,13,09,324,17,03,08,263,20,23,05,299,22,25,04,335,*7C
$GPRMC,080434.000,A,5222.1168,N,00454.2109,E,4.12,306.80,140109,,,A*64
$GPVTG,306.80,T,,M,4.12,N,7.6,K,A*06
$GPGGA,080435.000,5222.1182,N,00454.2090,E,1,04,2.1,-1.7,M,47.0,M,,0000*7A
$GPGSA,A,3,21,16,24,30,,,,,,,,,3.6,2.1,2.9*3E
$GPRMC,080435.000,A,5222.1182,N,00454.2090,E,3.80,304.88,140109,,,A*66
$GPVTG,304.88,T,,M,3.80,N,7.0,K,A*06
$GPGGA,080436.000,5222.1196,N,00454.2082,E,1,04,2.1,-4.6,M,47.0,M,,0000*7B
$GPGSA,A,3,21,16,24,30,,,,,,,,,3.6,2.1,2.9*3E
$GPRMC,080436.000,A,5222.1196,N,00454.2082,E,2.31,312.37,140109,,,A*6B
$GPVTG,312.37,T,,M,2.31,N,4.3,K,A*0E
$GPGGA,080437.000,5222.1207,N,00454.2079,E,1,04,2.1,-7.6,M,47.0,M,,0000*76
$GPGSA,A,3,21,16,24,30,,,,,,,,,3.6,2.1,2.9*3E
$GPRMC,080437.000,A,5222.1207,N,00454.2079,E,1.34,326.24,140109,,,A*66
$GPVTG,326.24,T,,M,1.34,N,2.5,K,A*0D
$GPGGA,080438.000,5222.1217,N,00454.2077,E,1,04,2.1,-11.4,M,47.0,M,,0000*43
$GPGSA,A,3,21,16,24,30,,,,,,,,,3.6,2.1,2.9*3E
$GPRMC,080438.000,A,5222.1217,N,00454.2077,E,0.00,326.24,140109,,,A*60
$GPVTG,326.24,T,,M,0.00,N,0.0,K,A*0C
$GPGGA,080439.000,5222.1217,N,00454.2077,E,1,04,2.1,-11.4,M,47.0,M,,0000*42
$GPGSA,A,3,21,16,24,30,,,,,,,,,3.6,2.1,2.9*3E
$GPGSV,3,1,12,21,58,157,28,16,55,295,33,24,49,069,32,29,43,074,31*7E
$GPGSV,3,2,12,31,31,209,24,06,23,260,15,10,17,044,23,30,15,131,21*70
$GPGSV,3,3,12,13,09,324,,03,08,263,19,23,05,299,21,25,04,335,*73
$GPRMC,080439.000,A,5222.1217,N,00454.2077,E,0.00,326.24,140109,,,A*61
$GPGGA,080440.000,5222.1217,N,00454.2077,E,1,04,2.1,-11.4,M,47.0,M,,0000*4C
$GPGSA,A,3,21,16,24,30,,,,,,,,,3.6,2.1,2.9*3E
$GPRMC,080440.000,A,5222.1217,N,00454.2077,E,0.00,326.24,140109,,,A*6F
$GPVTG,326.24,T,,M,0.00,N,0.0,K,A*0C
$GPGGA,080441.000,5222.1217,N,00454.2077,E,1,04,2.1,-11.4,M,47.0,M,,0000*4D
$GPGSA,A,3,21,16,24,30,,,,,,,,,3.6,2.1,2.9*3E
$GPRMC,080441.000,A,5222.1217,N,00454.2077,E,0.00,326.24,140109,,,A*6E
$GPVTG,326.24,T,,M,0.00,N,0.0,K,A*0C
$GPGGA,080442.000,5222.1217,N,00454.2077,E,1,04,2.1,-11.4,M,47.0,M,,0000*4E
$GPGSA,A,3,21,16,24,30,,,,,,,,,3.6,2.1,2.9*3E
$GPRMC,080442.000,A,5222.1217,N,00454.2077,E,0.00,326.24,140109,,,A*6D
$GPVTG,326.24,T,,M,0.00,N,0.0,K,A*0C
$GPGGA,080443.000,5222.1217,N,00454.2077,E,1,04,2.1,-11.4,M,47.0,M,,0000*4F
$GPGSA,A,3,21,16,24,30,,,,,,,,,3.6,2.1,2.9*3E
$GPRMC,080443.000,A,5222.1217,N,00454.2077,E,0.00,326.24,140109,,,A*6C
$GPVTG,326.24,T,,M,0.00,N,0.0,K,A*0C
$GPGGA,080444.000,5222.1217,N,00454.2077,E,1,04,2.1,-11.4,M,47.0,M,,0000*48
$GPGSA,A,3,21,16,24,30,,,,,,,,,3.6,2.1,2.9*3E
$GPGSV,3,1,12,21,58,157,28,16,55,295,27,24,49,069,34,29,43,074,32*7E
$GPGSV,3,2,12,31,31,209,30,06,23,260,26,10,17,044,15,30,15,131,37*77
$GPGSV,3,3,12,13,09,324,,03,08,263,19,23,05,299,19,25,04,335,*78
$GPRMC,080444.000,A,5222.1217,N,00454.2077,E,0.00,326.24,140109,,,A*6B
$GPVTG,326.24,T,,M,0.00,N,0.0,K,A*0C
$GPGGA,080445.000,5222.1217,N,00454.2077,E,1,04,2.1,-11.4,M,47.0,M,,0000*49
$GPGSA,A,3,21,16,24,30,,,,,,,,,3.6,2.1,2.9*3E
$GPRMC,080445.000,A,5222.1217,N,00454.2077,E,0.00,326.24,140109,,,A*6A
$GPVTG,326.24,T,,M,0.00,N,0.0,K,A*0C
$GPGGA,080446.000,5222.1217,N,00454.2077,E,1,04,2.1,-11.4,M,47.0,M,,0000*4A
$GPGSA,A,3,21,16,24,30,,,,,,,,,3.6,2.1,2.9*3E
$GPRMC,080446.000,A,5222.1217,N,00454.2077,E,0.00,326.24,140109,,,A*69
$GPVTG,326.24,T,,M,0.00,N,0.0,K,A*0C
$GPGGA,080447.000,5222.1217,N,00454.2077,E,1,03,2.2,-11.4,M,47.0,M,,0000*4F
$GPGSA,A,2,16,24,30,,,,,,,,,,2.4,2.2,1.0*36
$GPWPL,5222.1217,N,00454.2077,E,00001*7F
$ADPMB,5,0
$GPRMC,080447.000,A,5222.1217,N,00454.2077,E,0.00,326.24,140109,,,A*68
$GPVTG,326.24,T,,M,0.00,N,0.0,K,N*03
$GPGGA,080448.000,5222.1217,N,00454.2077,E,1,04,2.1,-11.4,M,47.0,M,,0000*44
$GPGSA,A,3,21,16,24,30,,,,,,,,,3.6,2.1,2.9*3E
$GPRMC,080448.000,A,5222.1217,N,00454.2077,E,0.00,326.24,140109,,,A*67
$GPVTG,326.24,T,,M,0.00,N,0.0,K,A*0C
